[
  {
    "id": 1220488,
    "name": "Silele Red Cross Clinic, Sigombeni Red Cross Clinic & Mahwalala Red Cross Clinic",
    "latitude": -27.226852,
    "longitude": 31.567837,
    "type": "Primary Health Care Centres",
    "functionality": "Fully Functional",
    "country": "Eswatini, Kingdom of",
    "district": "Silele Clinic is is in Hosea Inkhundla under the Shiselweni, Sigombeni is in Nkom'iyahlaba Inkhundla under the Manzini region and Mahwalala is in the Mbabane West Inkhundla under the Hhohho region.",
    "affiliation": "Red Cross Red Crescent Facility",
    "speciality": "Initiate TB treatment, Cervical Cancer Screening and testing and diagnostic and treatment for people living with HIV and follow up care through the ART programme which the government supports very well",
    "region": "Africa",
    "icon": "https://i.ibb.co/yhYWw9Q/PHC-Centre.png"
  },
  {
    "id": 1234943,
    "name": "Sigombeni Red Cross Clinic",
    "latitude": -26.41647,
    "longitude": 31.25542,
    "type": "Primary Health Care Centres",
    "functionality": "Fully Functional",
    "country": "Eswatini, Kingdom of",
    "district": "Manzini",
    "affiliation": "Red Cross Red Crescent Facility",
    "speciality": "Maternity emergency deliveries, Cervical Cancer Screening, testing and treatment.",
    "region": "Africa",
    "icon": "https://i.ibb.co/yhYWw9Q/PHC-Centre.png"
  },
  {
    "id": 1235280,
    "name": "Mahwalala Red Cross Clinic",
    "latitude": -26.303957,
    "longitude": 31.086073,
    "type": "Primary Health Care Centres",
    "functionality": "Fully Functional",
    "country": "Eswatini, Kingdom of",
    "district": "Mbabane",
    "affiliation": "Red Cross Red Crescent Facility",
    "speciality": "maternity emergency deliveries, cervical cancer screeting, testing & cryotherapy treatment",
    "region": "Africa",
    "icon": "https://i.ibb.co/yhYWw9Q/PHC-Centre.png"
  },
  {
    "id": 1235346,
    "name": "Silele Red Cross Clinic",
    "latitude": -27.174942,
    "longitude": 31.540718,
    "type": "Primary Health Care Centres",
    "functionality": "Fully Functional",
    "country": "Eswatini, Kingdom of",
    "district": "Shiselweni region",
    "affiliation": "Red Cross Red Crescent Facility",
    "speciality": "maternity emergency deliveries, cervical cancer screening, testing & treatment.",
    "region": "Africa",
    "icon": "https://i.ibb.co/yhYWw9Q/PHC-Centre.png"
  },
  {
    "id": 1234453,
    "name": "Servicio de Atención Médica de Urgencias SAMU AV. 68",
    "latitude": 4.672504,
    "longitude": -74.089506,
    "type": "Other",
    "functionality": "Fully Functional",
    "country": "Colombia",
    "district": "Bogotá",
    "affiliation": "Red Cross Red Crescent Facility",
    "region": "Americas",
    "icon": "https://i.ibb.co/C5SdLDV/Others.png"
  },
  {
    "id": 1234458,
    "name": "Servicio de Atención Médica de Urgencias SAMU Alquería",
    "latitude": 4.60731,
    "longitude": -74.13085,
    "type": "Hospitals",
    "functionality": "Fully Functional",
    "country": "Colombia",
    "district": "Bogotá",
    "affiliation": "Red Cross Red Crescent Facility",
    "region": "Americas",
    "icon": "https://i.ibb.co/cvm3m3h/Hospital.png"
  },
  {
    "id": 1234481,
    "name": "Servicio de Atención Médica de Urgencias SAMU Calle 134",
    "latitude": 4.711378,
    "longitude": -74.030911,
    "type": "Hospitals",
    "functionality": "Fully Functional",
    "country": "Colombia",
    "district": "Bogotá",
    "affiliation": "Red Cross Red Crescent Facility",
    "region": "Americas",
    "icon": "https://i.ibb.co/cvm3m3h/Hospital.png"
  },
  {
    "id": 1240480,
    "name": "Banco Nacional de Sangre",
    "latitude": 4.673269,
    "longitude": -74.089104,
    "type": "Blood Centres",
    "functionality": "Fully Functional",
    "country": "Colombia",
    "district": "Bogota",
    "affiliation": "Red Cross Red Crescent Facility",
    "region": "Americas",
    "icon": "https://i.ibb.co/fCzwY1Y/Blood-Centre.png"
  },
  {
    "id": 1245976,
    "name": "IPS Cruz Roja Colombiana Seccional Bolivar",
    "latitude": 10.409744,
    "longitude": -75.516012,
    "type": "Primary Health Care Centres",
    "functionality": "Fully Functional",
    "country": "Colombia",
    "district": "Departamento de Bolivar",
    "affiliation": "Red Cross Red Crescent Facility",
    "region": "Americas",
    "icon": "https://i.ibb.co/yhYWw9Q/PHC-Centre.png"
  },
  {
    "id": 1246379,
    "name": "Cruz Roja Colombiana Seccional Valle del Cauca",
    "latitude": 3.427086,
    "longitude": -76.544773,
    "type": "Primary Health Care Centres",
    "functionality": "Fully Functional",
    "country": "Colombia",
    "district": "VALLE DEL CAUCA",
    "affiliation": "Red Cross Red Crescent Facility",
    "region": "Americas",
    "icon": "https://i.ibb.co/yhYWw9Q/PHC-Centre.png"
  },
  {
    "id": 1246380,
    "name": "Cruz Roja Colombiana Seccional Valle del cauca",
    "latitude": 3.427485,
    "longitude": -76.544718,
    "type": "Ambulance Stations",
    "functionality": "Fully Functional",
    "country": "Colombia",
    "district": "Valle del Cauca",
    "affiliation": "Red Cross Red Crescent Facility",
    "region": "Americas",
    "icon": "https://i.ibb.co/713rxGr/Ambulance-Station.png"
  },
  {
    "id": 1253047,
    "name": "Cruz Roja Colombiana Seccional Córdoba",
    "latitude": 8.744484,
    "longitude": -75.878156,
    "type": "Primary Health Care Centres",
    "functionality": "Fully Functional",
    "country": "Colombia",
    "district": "C.C. (Cédula de Ciudadanía) 22.449.142",
    "affiliation": "Private Facility",
    "region": "Americas",
    "icon": "https://i.ibb.co/yhYWw9Q/PHC-Centre.png"
  },
  {
    "id": 1253174,
    "name": "cruz roja colombiana seccional valle del cauca",
    "latitude": 3.427453,
    "longitude": -76.544719,
    "type": "Other",
    "functionality": "Fully Functional",
    "country": "Colombia",
    "district": "valle del cauca",
    "affiliation": "Private Facility",
    "region": "Americas",
    "icon": "https://i.ibb.co/C5SdLDV/Others.png"
  },
  {
    "id": 1253184,
    "name": "cruz roja colombiana seccional valle del cauca",
    "latitude": 3.427603,
    "longitude": -76.54475,
    "type": "Other",
    "functionality": "Fully Functional",
    "country": "Colombia",
    "district": "valle del cauca",
    "affiliation": "Private Facility",
    "region": "Americas",
    "icon": "https://i.ibb.co/C5SdLDV/Others.png"
  },
  {
    "id": 1253186,
    "name": "cruz roja colombiana seccional valle del cauca",
    "latitude": 3.427528,
    "longitude": -76.544773,
    "type": "Other",
    "functionality": "Fully Functional",
    "country": "Colombia",
    "district": "valle del cauca",
    "affiliation": "Private Facility",
    "region": "Americas",
    "icon": "https://i.ibb.co/C5SdLDV/Others.png"
  },
  {
    "id": 1253190,
    "name": "cruz roja colombiana seccional valle del cauca",
    "latitude": 3.42755,
    "longitude": -76.544729,
    "type": "Other",
    "functionality": "Fully Functional",
    "country": "Colombia",
    "district": "valle del cauca",
    "affiliation": "Private Facility",
    "region": "Americas",
    "icon": "https://i.ibb.co/C5SdLDV/Others.png"
  },
  {
    "id": 1253192,
    "name": "cruz roja colombiana seccional valle del cauca",
    "latitude": 3.561855,
    "longitude": -76.49029,
    "type": "Other",
    "functionality": "Fully Functional",
    "country": "Colombia",
    "district": "valle del cauca",
    "affiliation": "Private Facility",
    "region": "Americas",
    "icon": "https://i.ibb.co/C5SdLDV/Others.png"
  },
  {
    "id": 1253199,
    "name": "cruz roja colombiana seccional valle del cauca",
    "latitude": 3.427625,
    "longitude": -76.544782,
    "type": "Other",
    "functionality": "Fully Functional",
    "country": "Colombia",
    "district": "valle del cauca",
    "affiliation": "Private Facility",
    "region": "Americas",
    "icon": "https://i.ibb.co/C5SdLDV/Others.png"
  },
  {
    "id": 1253202,
    "name": "cruz roja colombiana seccional valle del cauca unidad municipal cartago",
    "latitude": 4.750813,
    "longitude": -75.911047,
    "type": "Primary Health Care Centres",
    "functionality": "Fully Functional",
    "country": "Colombia",
    "district": "carrera 3 con 10 Cartago Valle del cauca",
    "affiliation": "Red Cross Red Crescent Facility",
    "region": "Americas",
    "icon": "https://i.ibb.co/yhYWw9Q/PHC-Centre.png"
  },
  {
    "id": 1253209,
    "name": "cruz roja colombiana seccional valle del cauca unidad municipal Palmira",
    "latitude": 3.52829,
    "longitude": -76.295506,
    "type": "Primary Health Care Centres",
    "functionality": "Partially Functional",
    "country": "Colombia",
    "district": "carrera 24 #32-32 centro. Cartago -  valle del cauca",
    "affiliation": "Red Cross Red Crescent Facility",
    "region": "Americas",
    "icon": "https://i.ibb.co/yhYWw9Q/PHC-Centre.png"
  },
  {
    "id": 1253815,
    "name": "banco de sangre Cruz Roja Seccional  Bolivar",
    "latitude": 10.405958,
    "longitude": -75.509997,
    "type": "Blood Centres",
    "functionality": "Fully Functional",
    "country": "Colombia",
    "district": "Cruz Roja Seccional Bolivar",
    "affiliation": "Red Cross Red Crescent Facility",
    "region": "Americas",
    "icon": "https://i.ibb.co/fCzwY1Y/Blood-Centre.png"
  },
  {
    "id": 1253818,
    "name": "HEMOCENTRO DEL CAFE",
    "latitude": 5.053134,
    "longitude": -75.482242,
    "type": "Blood Centres",
    "functionality": "Fully Functional",
    "country": "Colombia",
    "district": "CaldaS",
    "affiliation": "Red Cross Red Crescent Facility",
    "region": "Americas",
    "icon": "https://i.ibb.co/fCzwY1Y/Blood-Centre.png"
  },
  {
    "id": 1253819,
    "name": "Cruz Roja Colombiana Seccional Caldas – Hospital Infantil Rafael Henao Toro",
    "latitude": 5.071023,
    "longitude": -75.492716,
    "type": "Specialized Services",
    "functionality": "Fully Functional",
    "country": "Colombia",
    "district": "Manizales, Caldas- Colombia",
    "affiliation": "Private Facility",
    "speciality": "Pediatría, Población de 30 días a 17 años, ámbitos, ambulatorio, hospitalario/UCI, Quirúrgico.",
    "region": "Americas",
    "icon": "https://i.ibb.co/Zf0xwhB/Specialized-Services.png"
  },
  {
    "id": 1253824,
    "name": "Cruz Roja Colombiana Seccional Quindío",
    "latitude": 4.560998,
    "longitude": -75.65454,
    "type": "Blood Centres",
    "functionality": "Fully Functional",
    "country": "Colombia",
    "district": "Quindío",
    "affiliation": "Red Cross Red Crescent Facility",
    "region": "Americas",
    "icon": "https://i.ibb.co/fCzwY1Y/Blood-Centre.png"
  },
  {
    "id": 1253834,
    "name": "Cruz Roja Colombiana Seccional Valle cr 38 bis 5-91",
    "latitude": 3.430082,
    "longitude": -76.546028,
    "type": "Blood Centres",
    "functionality": "Fully Functional",
    "country": "Colombia",
    "district": "Valle del Cauca",
    "affiliation": "Red Cross Red Crescent Facility",
    "region": "Americas",
    "icon": "https://i.ibb.co/fCzwY1Y/Blood-Centre.png"
  },
  {
    "id": 1254203,
    "name": "Cruz Roja Colombiana Seccional Guajira",
    "latitude": 11.54289,
    "longitude": -72.908542,
    "type": "Other",
    "functionality": "Fully Functional",
    "country": "Colombia",
    "district": "La Guajira, Riohacha",
    "affiliation": "Private Facility",
    "region": "Americas",
    "icon": "https://i.ibb.co/C5SdLDV/Others.png"
  },
  {
    "id": 1254467,
    "name": "IPS de Cruz Roja Colombiana Seccional Cesar",
    "latitude": 10.479973,
    "longitude": -73.246429,
    "type": "Primary Health Care Centres",
    "functionality": "Fully Functional",
    "country": "Colombia",
    "district": "Dir: calle 13b N 4-116 Barrio la Guajira (Valledupar-Cesar)",
    "affiliation": "Red Cross Red Crescent Facility",
    "region": "Americas",
    "icon": "https://i.ibb.co/yhYWw9Q/PHC-Centre.png"
  },
  {
    "id": 1255591,
    "name": "Cruz Roja Seccional Risaralda",
    "latitude": 4.813169,
    "longitude": -75.701859,
    "type": "Ambulance Stations",
    "functionality": "Fully Functional",
    "country": "Colombia",
    "district": "Risaralda",
    "affiliation": "Red Cross Red Crescent Facility",
    "region": "Americas",
    "icon": "https://i.ibb.co/713rxGr/Ambulance-Station.png"
  },
  {
    "id": 1255601,
    "name": "Cruz Roja Seccional Risaralda",
    "latitude": 4.80718,
    "longitude": -75.691112,
    "type": "Primary Health Care Centres",
    "functionality": "Fully Functional",
    "country": "Colombia",
    "district": "Risaralda",
    "affiliation": "Red Cross Red Crescent Facility",
    "region": "Americas",
    "icon": "https://i.ibb.co/yhYWw9Q/PHC-Centre.png"
  },
  {
    "id": 1255615,
    "name": "Cruz Roja Seccional Risaralda",
    "latitude": 4.807262,
    "longitude": -75.691075,
    "type": "Primary Health Care Centres",
    "functionality": "Fully Functional",
    "country": "Colombia",
    "district": "Risaralda",
    "affiliation": "Private Facility",
    "region": "Americas",
    "icon": "https://i.ibb.co/yhYWw9Q/PHC-Centre.png"
  },
  {
    "id": 1255645,
    "name": "Cruz Roja Seccional Risaralda",
    "latitude": 4.807924,
    "longitude": -75.691954,
    "type": "Other",
    "functionality": "Fully Functional",
    "country": "Colombia",
    "district": "Risaralda",
    "affiliation": "Organizational Facility",
    "region": "Americas",
    "icon": "https://i.ibb.co/C5SdLDV/Others.png"
  },
  {
    "id": 1255649,
    "name": "Cruz Roja Seccional Risaralda",
    "latitude": 4.807801,
    "longitude": -75.691905,
    "type": "Pharmacies",
    "functionality": "Fully Functional",
    "country": "Colombia",
    "district": "Risaralda",
    "affiliation": "Red Cross Red Crescent Facility",
    "region": "Americas",
    "icon": "https://i.ibb.co/YjYJX91/Pharmacy.png"
  },
  {
    "id": 1255661,
    "name": "Cruz Roja Seccional Risaralda",
    "latitude": 4.807719,
    "longitude": -75.692008,
    "type": "Training Facilities",
    "functionality": "Fully Functional",
    "country": "Colombia",
    "district": "Risaralda",
    "affiliation": "Red Cross Red Crescent Facility",
    "region": "Americas",
    "icon": "https://i.ibb.co/5kY1Hp8/Training-Facility.png"
  },
  {
    "id": 1255845,
    "name": "IPS de la Cruz Roja Colombiana Seccional Atlántico",
    "latitude": 10.981918,
    "longitude": -74.803473,
    "type": "Primary Health Care Centres",
    "functionality": "Fully Functional",
    "country": "Colombia",
    "district": "Distrito de Barranquilla",
    "affiliation": "Red Cross Red Crescent Facility",
    "region": "Americas",
    "icon": "https://i.ibb.co/yhYWw9Q/PHC-Centre.png"
  },
  {
    "id": 1256682,
    "name": "CRUZ ROJA COLOMBIANA SECCIONAL BOYACA",
    "latitude": 5.530055,
    "longitude": -73.36219,
    "type": "Primary Health Care Centres",
    "functionality": "Fully Functional",
    "country": "Colombia",
    "district": "BOYACA",
    "affiliation": "Red Cross Red Crescent Facility",
    "region": "Americas",
    "icon": "https://i.ibb.co/yhYWw9Q/PHC-Centre.png"
  },
  {
    "id": 1256727,
    "name": "Cruz Roja Colombiana Seccional Caldas",
    "latitude": 5.09368,
    "longitude": -75.4088,
    "type": "Ambulance Stations",
    "functionality": "Fully Functional",
    "country": "Colombia",
    "district": "Caldas",
    "affiliation": "Red Cross Red Crescent Facility",
    "region": "Americas",
    "icon": "https://i.ibb.co/713rxGr/Ambulance-Station.png"
  },
  {
    "id": 1256776,
    "name": "Cruz Roja Colombiana Seccional Caldas",
    "latitude": 5.065382,
    "longitude": -75.501001,
    "type": "Training Facilities",
    "functionality": "Fully Functional",
    "country": "Colombia",
    "district": "CALDAS - MANIZALES",
    "affiliation": "Red Cross Red Crescent Facility",
    "region": "Americas",
    "icon": "https://i.ibb.co/5kY1Hp8/Training-Facility.png"
  },
  {
    "id": 1256901,
    "name": "Cruz Roja Colombiana Seccional Caqueta",
    "latitude": 1.611883,
    "longitude": -75.615269,
    "type": "Other",
    "functionality": "Fully Functional",
    "country": "Colombia",
    "district": "departamento",
    "affiliation": "Private Facility",
    "region": "Americas",
    "icon": "https://i.ibb.co/C5SdLDV/Others.png"
  },
  {
    "id": 1257376,
    "name": "IPS Cruz Roja Colombiana Seccional Casanare",
    "latitude": 5.344484,
    "longitude": -72.400967,
    "type": "Primary Health Care Centres",
    "functionality": "Fully Functional",
    "country": "Colombia",
    "district": "Casanare,Colombia",
    "affiliation": "Red Cross Red Crescent Facility",
    "region": "Americas",
    "icon": "https://i.ibb.co/yhYWw9Q/PHC-Centre.png"
  },
  {
    "id": 1257382,
    "name": "Farmacia Cruz Roja Colombiana Seccional Casanare",
    "latitude": 5.343245,
    "longitude": -72.39654,
    "type": "Pharmacies",
    "functionality": "Fully Functional",
    "country": "Colombia",
    "district": "Yopal Casanare,Colombia",
    "affiliation": "Red Cross Red Crescent Facility",
    "region": "Americas",
    "icon": "https://i.ibb.co/YjYJX91/Pharmacy.png"
  },
  {
    "id": 1257383,
    "name": "CRCSC",
    "latitude": 5.344356,
    "longitude": -72.401136,
    "type": "Ambulance Stations",
    "functionality": "Fully Functional",
    "country": "Colombia",
    "district": "Yopal,Casanare,Colombia",
    "affiliation": "Red Cross Red Crescent Facility",
    "region": "Americas",
    "icon": "https://i.ibb.co/713rxGr/Ambulance-Station.png"
  },
  {
    "id": 1261069,
    "name": "Seccional Antioquia",
    "latitude": 6.246364,
    "longitude": -75.568099,
    "type": "Blood Centres",
    "functionality": "Fully Functional",
    "country": "Colombia",
    "district": "Antioquia",
    "affiliation": "Red Cross Red Crescent Facility",
    "region": "Americas",
    "icon": "https://i.ibb.co/fCzwY1Y/Blood-Centre.png"
  },
  {
    "id": 1261770,
    "name": "Cruz Roja Colombiana Seccional Antioquia",
    "latitude": 6.228268,
    "longitude": -75.577311,
    "type": "Blood Centres",
    "functionality": "Fully Functional",
    "country": "Colombia",
    "district": "1.800 metros cuadrados y construidos 3.600 metros cuadrados",
    "affiliation": "Red Cross Red Crescent Facility",
    "region": "Americas",
    "icon": "https://i.ibb.co/fCzwY1Y/Blood-Centre.png"
  },
  {
    "id": 1239684,
    "name": "Dětský dechový stacionář (in english \"Respiration Rehabilitation Centre for children\")",
    "latitude": 50.539967,
    "longitude": 14.130582,
    "type": "Specialized Services",
    "functionality": "Fully Functional",
    "country": "Czech Republic",
    "district": "The Ústí Region",
    "affiliation": "Red Cross Red Crescent Facility",
    "region": "Europe",
    "icon": "https://i.ibb.co/Zf0xwhB/Specialized-Services.png"
  },
  {
    "id": 1239699,
    "name": "Dětská odborná léčebna Charlotty G. Masarykové (in english \"Charlotte G. Masaryk Children’s Specialised Sanatorium in Bukovany\")",
    "latitude": 49.573111,
    "longitude": 14.102601,
    "type": "Specialized Services",
    "functionality": "Fully Functional",
    "country": "Czech Republic",
    "district": "The Central Bohemian Region",
    "affiliation": "Red Cross Red Crescent Facility",
    "region": "Europe",
    "icon": "https://i.ibb.co/Zf0xwhB/Specialized-Services.png"
  },
  {
    "id": 1242203,
    "name": "Dům péče ČČK (in english \"CRC House of Care\")",
    "latitude": 50.406548,
    "longitude": 14.923371,
    "type": "Residential Facilities",
    "functionality": "Fully Functional",
    "country": "Czech Republic",
    "district": "The Central Bohemian Region",
    "affiliation": "Red Cross Red Crescent Facility",
    "region": "Europe",
    "icon": "https://i.ibb.co/Yh8cmvZ/Residential-Facility.png"
  },
  {
    "id": 1249122,
    "name": "Community Health Center of Vera Cruz",
    "latitude": -8.554407,
    "longitude": 125.56543,
    "type": "Primary Health Care Centres",
    "functionality": "Fully Functional",
    "country": "Timor-Leste",
    "district": "Administrative Post Vera Cruz, Dili Municipality",
    "affiliation": "Organizational Facility",
    "region": "Asia Pacific",
    "icon": "https://i.ibb.co/yhYWw9Q/PHC-Centre.png"
  },
  {
    "id": 1250597,
    "name": "Cruz Roja Metropolitano",
    "latitude": 9.930959,
    "longitude": -84.085561,
    "type": "Ambulance Stations",
    "functionality": "Fully Functional",
    "country": "Costa Rica",
    "district": "San José, Distrito Merced",
    "affiliation": "Red Cross Red Crescent Facility",
    "region": "Americas",
    "icon": "https://i.ibb.co/713rxGr/Ambulance-Station.png"
  },
  {
    "id": 1250609,
    "name": "Comité Moravia",
    "latitude": 9.960826,
    "longitude": -84.048772,
    "type": "Ambulance Stations",
    "functionality": "Fully Functional",
    "country": "Costa Rica",
    "district": "Moravia",
    "affiliation": "Red Cross Red Crescent Facility",
    "region": "Americas",
    "icon": "https://i.ibb.co/713rxGr/Ambulance-Station.png"
  },
  {
    "id": 1250611,
    "name": "Cruz Roja Goicochea",
    "latitude": 9.945465,
    "longitude": -84.052932,
    "type": "Ambulance Stations",
    "functionality": "Fully Functional",
    "country": "Costa Rica",
    "district": "Goicochea, Guadalupe",
    "affiliation": "Red Cross Red Crescent Facility",
    "region": "Americas",
    "icon": "https://i.ibb.co/713rxGr/Ambulance-Station.png"
  },
  {
    "id": 1250628,
    "name": "Coronado",
    "latitude": 9.98675,
    "longitude": -84.00147,
    "type": "Ambulance Stations",
    "functionality": "Fully Functional",
    "country": "Costa Rica",
    "district": "Costa Rica, Coronado",
    "affiliation": "Red Cross Red Crescent Facility",
    "region": "Americas",
    "icon": "https://i.ibb.co/713rxGr/Ambulance-Station.png"
  },
  {
    "id": 1250629,
    "name": "Comité Ipís",
    "latitude": 9.958898,
    "longitude": -84.094702,
    "type": "Ambulance Stations",
    "functionality": "Partially Functional",
    "country": "Costa Rica",
    "district": "Leon XIII",
    "affiliation": "Red Cross Red Crescent Facility",
    "region": "Americas",
    "icon": "https://i.ibb.co/713rxGr/Ambulance-Station.png"
  },
  {
    "id": 1250669,
    "name": "Montes de Oca, San Pedro",
    "latitude": 9.946733,
    "longitude": -84.035397,
    "type": "Ambulance Stations",
    "functionality": "Fully Functional",
    "country": "Costa Rica",
    "district": "San Pedro",
    "affiliation": "Red Cross Red Crescent Facility",
    "region": "Americas",
    "icon": "https://i.ibb.co/713rxGr/Ambulance-Station.png"
  },
  {
    "id": 1250672,
    "name": "Leon VIII",
    "latitude": 9.95886,
    "longitude": -84.09473,
    "type": "Ambulance Stations",
    "functionality": "Fully Functional",
    "country": "Costa Rica",
    "district": "San Jose Leo VIII",
    "affiliation": "Red Cross Red Crescent Facility",
    "region": "Americas",
    "icon": "https://i.ibb.co/713rxGr/Ambulance-Station.png"
  },
  {
    "id": 1250673,
    "name": "Cruz Roja Tres Ríos",
    "latitude": 9.90792,
    "longitude": -83.986014,
    "type": "Ambulance Stations",
    "functionality": "Fully Functional",
    "country": "Costa Rica",
    "district": "San Jose Tres Ríos",
    "affiliation": "Red Cross Red Crescent Facility",
    "region": "Americas",
    "icon": "https://i.ibb.co/713rxGr/Ambulance-Station.png"
  },
  {
    "id": 1250684,
    "name": "San Juan de Dios Desamparados.",
    "latitude": 9.87753,
    "longitude": -84.07978,
    "type": "Ambulance Stations",
    "functionality": "Fully Functional",
    "country": "Costa Rica",
    "district": "San Juan de Dios Desamparados.",
    "affiliation": "Red Cross Red Crescent Facility",
    "region": "Americas",
    "icon": "https://i.ibb.co/713rxGr/Ambulance-Station.png"
  },
  {
    "id": 1250689,
    "name": "Comite Aserrí",
    "latitude": 9.86334,
    "longitude": -84.09333,
    "type": "Ambulance Stations",
    "functionality": "Fully Functional",
    "country": "Costa Rica",
    "district": "San Jose. Aserrí",
    "affiliation": "Red Cross Red Crescent Facility",
    "region": "Americas",
    "icon": "https://i.ibb.co/713rxGr/Ambulance-Station.png"
  },
  {
    "id": 1250692,
    "name": "Comité Acosta",
    "latitude": 9.79836,
    "longitude": -84.16241,
    "type": "Ambulance Stations",
    "functionality": "Fully Functional",
    "country": "Costa Rica",
    "district": "San Jose Acosta",
    "affiliation": "Red Cross Red Crescent Facility",
    "region": "Americas",
    "icon": "https://i.ibb.co/713rxGr/Ambulance-Station.png"
  },
  {
    "id": 1250704,
    "name": "Comité San Juan Sur, Desamparados.",
    "latitude": 9.788472,
    "longitude": -84.068861,
    "type": "Ambulance Stations",
    "functionality": "Fully Functional",
    "country": "Costa Rica",
    "district": "San Jose",
    "affiliation": "Red Cross Red Crescent Facility",
    "region": "Americas",
    "icon": "https://i.ibb.co/713rxGr/Ambulance-Station.png"
  },
  {
    "id": 1250723,
    "name": "Comité Escazú",
    "latitude": 9.92114,
    "longitude": -84.14533,
    "type": "Ambulance Stations",
    "functionality": "Fully Functional",
    "country": "Costa Rica",
    "district": "San Jose",
    "affiliation": "Red Cross Red Crescent Facility",
    "region": "Americas",
    "icon": "https://i.ibb.co/713rxGr/Ambulance-Station.png"
  },
  {
    "id": 1250725,
    "name": "Comité Santa Ana",
    "latitude": 9.93364,
    "longitude": -84.18844,
    "type": "Ambulance Stations",
    "functionality": "Fully Functional",
    "country": "Costa Rica",
    "district": "San Jose",
    "affiliation": "Red Cross Red Crescent Facility",
    "region": "Americas",
    "icon": "https://i.ibb.co/713rxGr/Ambulance-Station.png"
  },
  {
    "id": 1250735,
    "name": "Comité Puriscal",
    "latitude": 9.84789,
    "longitude": -84.31534,
    "type": "Ambulance Stations",
    "functionality": "Fully Functional",
    "country": "Costa Rica",
    "district": "San Jose",
    "affiliation": "Red Cross Red Crescent Facility",
    "region": "Americas",
    "icon": "https://i.ibb.co/713rxGr/Ambulance-Station.png"
  },
  {
    "id": 1250737,
    "name": "Comité La Gloria",
    "latitude": 9.65872,
    "longitude": -84.4435,
    "type": "Ambulance Stations",
    "functionality": "Fully Functional",
    "country": "Costa Rica",
    "district": "San Jose",
    "affiliation": "Red Cross Red Crescent Facility",
    "region": "Americas",
    "icon": "https://i.ibb.co/713rxGr/Ambulance-Station.png"
  },
  {
    "id": 1250738,
    "name": "Comité Tabarcia",
    "latitude": 9.84967,
    "longitude": -84.23397,
    "type": "Ambulance Stations",
    "functionality": "Fully Functional",
    "country": "Costa Rica",
    "district": "San Jose.",
    "affiliation": "Red Cross Red Crescent Facility",
    "region": "Americas",
    "icon": "https://i.ibb.co/713rxGr/Ambulance-Station.png"
  },
  {
    "id": 1250740,
    "name": "Comité Frailes",
    "latitude": 9.7512,
    "longitude": -84.05466,
    "type": "Ambulance Stations",
    "functionality": "Fully Functional",
    "country": "Costa Rica",
    "district": "San Jose",
    "affiliation": "Red Cross Red Crescent Facility",
    "region": "Americas",
    "icon": "https://i.ibb.co/713rxGr/Ambulance-Station.png"
  },
  {
    "id": 1250741,
    "name": "Alajuelita",
    "latitude": 9.89758,
    "longitude": -84.09956,
    "type": "Ambulance Stations",
    "functionality": "Fully Functional",
    "country": "Costa Rica",
    "district": "San Jose",
    "affiliation": "Red Cross Red Crescent Facility",
    "region": "Americas",
    "icon": "https://i.ibb.co/713rxGr/Ambulance-Station.png"
  },
  {
    "id": 1250742,
    "name": "Alajuela",
    "latitude": 10.01714,
    "longitude": -84.21192,
    "type": "Ambulance Stations",
    "functionality": "Fully Functional",
    "country": "Costa Rica",
    "district": "Alajuela, centro",
    "affiliation": "Red Cross Red Crescent Facility",
    "region": "Americas",
    "icon": "https://i.ibb.co/713rxGr/Ambulance-Station.png"
  },
  {
    "id": 1250752,
    "name": "Comité Sabanilla",
    "latitude": 10.07567,
    "longitude": -84.21556,
    "type": "Ambulance Stations",
    "functionality": "Fully Functional",
    "country": "Costa Rica",
    "district": "Alajuela, Sabanilla",
    "affiliation": "Red Cross Red Crescent Facility",
    "region": "Americas",
    "icon": "https://i.ibb.co/713rxGr/Ambulance-Station.png"
  },
  {
    "id": 1250758,
    "name": "Comité San Pedro de Poas",
    "latitude": 10.0761739,
    "longitude": -84.243288,
    "type": "Ambulance Stations",
    "functionality": "Fully Functional",
    "country": "Costa Rica",
    "district": "Alajuela. Poas",
    "affiliation": "Red Cross Red Crescent Facility",
    "region": "Americas",
    "icon": "https://i.ibb.co/713rxGr/Ambulance-Station.png"
  },
  {
    "id": 1251863,
    "name": "Comité Turrucares",
    "latitude": 9.96111,
    "longitude": -84.31762,
    "type": "Ambulance Stations",
    "functionality": "Fully Functional",
    "country": "Costa Rica",
    "district": "Alajuela",
    "affiliation": "Red Cross Red Crescent Facility",
    "region": "Americas",
    "icon": "https://i.ibb.co/713rxGr/Ambulance-Station.png"
  },
  {
    "id": 1251869,
    "name": "Comité Atenas",
    "latitude": 9.97536,
    "longitude": -84.38258,
    "type": "Ambulance Stations",
    "functionality": "Fully Functional",
    "country": "Costa Rica",
    "district": "Alajuela",
    "affiliation": "Red Cross Red Crescent Facility",
    "region": "Americas",
    "icon": "https://i.ibb.co/713rxGr/Ambulance-Station.png"
  },
  {
    "id": 1251873,
    "name": "Comité Orotina",
    "latitude": 9.91203,
    "longitude": -84.52234,
    "type": "Ambulance Stations",
    "functionality": "Fully Functional",
    "country": "Costa Rica",
    "district": "Puntarenas",
    "affiliation": "Red Cross Red Crescent Facility",
    "region": "Americas",
    "icon": "https://i.ibb.co/713rxGr/Ambulance-Station.png"
  },
  {
    "id": 1251874,
    "name": "Comité Grecia",
    "latitude": 10.07453,
    "longitude": -84.30956,
    "type": "Ambulance Stations",
    "functionality": "Fully Functional",
    "country": "Costa Rica",
    "district": "Alajuela",
    "affiliation": "Red Cross Red Crescent Facility",
    "region": "Americas",
    "icon": "https://i.ibb.co/713rxGr/Ambulance-Station.png"
  },
  {
    "id": 1251876,
    "name": "Comité Sarchí",
    "latitude": 10.09164,
    "longitude": -84.34736,
    "type": "Ambulance Stations",
    "functionality": "Fully Functional",
    "country": "Costa Rica",
    "district": "Alajuela",
    "affiliation": "Red Cross Red Crescent Facility",
    "region": "Americas",
    "icon": "https://i.ibb.co/713rxGr/Ambulance-Station.png"
  },
  {
    "id": 1251883,
    "name": "Comité Naranjo",
    "latitude": 10.09511,
    "longitude": -84.37673,
    "type": "Ambulance Stations",
    "functionality": "Fully Functional",
    "country": "Costa Rica",
    "district": "Alajuela",
    "affiliation": "Red Cross Red Crescent Facility",
    "region": "Americas",
    "icon": "https://i.ibb.co/713rxGr/Ambulance-Station.png"
  },
  {
    "id": 1251906,
    "name": "Comité Palmares",
    "latitude": 10.05742,
    "longitude": -84.43561,
    "type": "Ambulance Stations",
    "functionality": "Fully Functional",
    "country": "Costa Rica",
    "district": "Alajuela",
    "affiliation": "Red Cross Red Crescent Facility",
    "region": "Americas",
    "icon": "https://i.ibb.co/713rxGr/Ambulance-Station.png"
  },
  {
    "id": 1251910,
    "name": "Comité San Ramón",
    "latitude": 10.08725,
    "longitude": -84.46739,
    "type": "Ambulance Stations",
    "functionality": "Fully Functional",
    "country": "Costa Rica",
    "district": "Alajuela",
    "affiliation": "Red Cross Red Crescent Facility",
    "region": "Americas",
    "icon": "https://i.ibb.co/713rxGr/Ambulance-Station.png"
  },
  {
    "id": 1251914,
    "name": "Zarcero Comité",
    "latitude": 10.18561,
    "longitude": -84.39211,
    "type": "Ambulance Stations",
    "functionality": "Fully Functional",
    "country": "Costa Rica",
    "district": "Alajuela",
    "affiliation": "Red Cross Red Crescent Facility",
    "region": "Americas",
    "icon": "https://i.ibb.co/713rxGr/Ambulance-Station.png"
  },
  {
    "id": 1251915,
    "name": "Comité Cartago",
    "latitude": 9.86242,
    "longitude": -83.9218,
    "type": "Ambulance Stations",
    "functionality": "Fully Functional",
    "country": "Costa Rica",
    "district": "Cartago",
    "affiliation": "Red Cross Red Crescent Facility",
    "region": "Americas",
    "icon": "https://i.ibb.co/713rxGr/Ambulance-Station.png"
  },
  {
    "id": 1251918,
    "name": "Comité Pacayas",
    "latitude": 9.91644,
    "longitude": -83.8105,
    "type": "Ambulance Stations",
    "functionality": "Fully Functional",
    "country": "Costa Rica",
    "district": "Cartago",
    "affiliation": "Red Cross Red Crescent Facility",
    "region": "Americas",
    "icon": "https://i.ibb.co/713rxGr/Ambulance-Station.png"
  },
  {
    "id": 1251921,
    "name": "Comité Tierra Blanca",
    "latitude": 9.91478,
    "longitude": -83.89028,
    "type": "Ambulance Stations",
    "functionality": "Fully Functional",
    "country": "Costa Rica",
    "district": "Cartago",
    "affiliation": "Red Cross Red Crescent Facility",
    "region": "Americas",
    "icon": "https://i.ibb.co/713rxGr/Ambulance-Station.png"
  },
  {
    "id": 1254539,
    "name": "Comité Santa Rosa",
    "latitude": 9.918474851,
    "longitude": -83.84002626,
    "type": "Ambulance Stations",
    "functionality": "Fully Functional",
    "country": "Costa Rica",
    "district": "Cartago",
    "affiliation": "Red Cross Red Crescent Facility",
    "region": "Americas",
    "icon": "https://i.ibb.co/713rxGr/Ambulance-Station.png"
  },
  {
    "id": 1254544,
    "name": "Comité Paraiso",
    "latitude": 9.840553653,
    "longitude": -83.86499961,
    "type": "Ambulance Stations",
    "functionality": "Fully Functional",
    "country": "Costa Rica",
    "district": "Cartago",
    "affiliation": "Red Cross Red Crescent Facility",
    "region": "Americas",
    "icon": "https://i.ibb.co/713rxGr/Ambulance-Station.png"
  },
  {
    "id": 1254547,
    "name": "Comité Juan Viñas",
    "latitude": 9.89538775,
    "longitude": -83.74648801,
    "type": "Ambulance Stations",
    "functionality": "Fully Functional",
    "country": "Costa Rica",
    "district": "Cartago",
    "affiliation": "Red Cross Red Crescent Facility",
    "region": "Americas",
    "icon": "https://i.ibb.co/713rxGr/Ambulance-Station.png"
  },
  {
    "id": 1254570,
    "name": "Comité Turrialba",
    "latitude": 9.905390626,
    "longitude": -83.68536485,
    "type": "Ambulance Stations",
    "functionality": "Fully Functional",
    "country": "Costa Rica",
    "district": "Cartago",
    "affiliation": "Red Cross Red Crescent Facility",
    "region": "Americas",
    "icon": "https://i.ibb.co/713rxGr/Ambulance-Station.png"
  },
  {
    "id": 1254572,
    "name": "Comité La Suiza",
    "latitude": 9.850637715,
    "longitude": -83.61121919,
    "type": "Ambulance Stations",
    "functionality": "Fully Functional",
    "country": "Costa Rica",
    "district": "Cartago",
    "affiliation": "Red Cross Red Crescent Facility",
    "region": "Americas",
    "icon": "https://i.ibb.co/713rxGr/Ambulance-Station.png"
  },
  {
    "id": 1255951,
    "name": "San Marcos de Tarrazú",
    "latitude": 9.661476008,
    "longitude": -84.02114031,
    "type": "Ambulance Stations",
    "functionality": "Fully Functional",
    "country": "Costa Rica",
    "district": "Cartago",
    "affiliation": "Red Cross Red Crescent Facility",
    "region": "Americas",
    "icon": "https://i.ibb.co/713rxGr/Ambulance-Station.png"
  },
  {
    "id": 1255955,
    "name": "Santa Maria de Dota",
    "latitude": 9.65433211,
    "longitude": -83.96921821,
    "type": "Ambulance Stations",
    "functionality": "Fully Functional",
    "country": "Costa Rica",
    "district": "Cartago",
    "affiliation": "Red Cross Red Crescent Facility",
    "region": "Americas",
    "icon": "https://i.ibb.co/713rxGr/Ambulance-Station.png"
  },
  {
    "id": 1255960,
    "name": "San Pablo de León Cortes",
    "latitude": 9.68458562,
    "longitude": -84.04113585,
    "type": "Ambulance Stations",
    "functionality": "Fully Functional",
    "country": "Costa Rica",
    "district": "Cartago",
    "affiliation": "Red Cross Red Crescent Facility",
    "region": "Americas",
    "icon": "https://i.ibb.co/713rxGr/Ambulance-Station.png"
  },
  {
    "id": 1255963,
    "name": "Corralillo",
    "latitude": 9.793415591,
    "longitude": -84.03702882,
    "type": "Ambulance Stations",
    "functionality": "Fully Functional",
    "country": "Costa Rica",
    "district": "Cartago",
    "affiliation": "Red Cross Red Crescent Facility",
    "region": "Americas",
    "icon": "https://i.ibb.co/713rxGr/Ambulance-Station.png"
  },
  {
    "id": 1255969,
    "name": "Tucurrique",
    "latitude": 9.852418863,
    "longitude": -83.72094613,
    "type": "Ambulance Stations",
    "functionality": "Fully Functional",
    "country": "Costa Rica",
    "district": "Cartago",
    "affiliation": "Red Cross Red Crescent Facility",
    "region": "Americas",
    "icon": "https://i.ibb.co/713rxGr/Ambulance-Station.png"
  },
  {
    "id": 1255973,
    "name": "Llano Grande",
    "latitude": 9.939776635,
    "longitude": -83.91077824,
    "type": "Ambulance Stations",
    "functionality": "Fully Functional",
    "country": "Costa Rica",
    "district": "Cartago",
    "affiliation": "Red Cross Red Crescent Facility",
    "region": "Americas",
    "icon": "https://i.ibb.co/713rxGr/Ambulance-Station.png"
  },
  {
    "id": 1255977,
    "name": "heredia",
    "latitude": 10.00038461,
    "longitude": -84.11680344,
    "type": "Ambulance Stations",
    "functionality": "Fully Functional",
    "country": "Costa Rica",
    "district": "Heredia",
    "affiliation": "Red Cross Red Crescent Facility",
    "region": "Americas",
    "icon": "https://i.ibb.co/713rxGr/Ambulance-Station.png"
  },
  {
    "id": 1255979,
    "name": "Barva",
    "latitude": 10.02174862,
    "longitude": -84.12194696,
    "type": "Ambulance Stations",
    "functionality": "Fully Functional",
    "country": "Costa Rica",
    "district": "Heredia",
    "affiliation": "Red Cross Red Crescent Facility",
    "region": "Americas",
    "icon": "https://i.ibb.co/713rxGr/Ambulance-Station.png"
  },
  {
    "id": 1255986,
    "name": "Santo DOmingo",
    "latitude": 9.982416632,
    "longitude": -84.09403045,
    "type": "Ambulance Stations",
    "functionality": "Fully Functional",
    "country": "Costa Rica",
    "district": "Heredia",
    "affiliation": "Red Cross Red Crescent Facility",
    "region": "Americas",
    "icon": "https://i.ibb.co/713rxGr/Ambulance-Station.png"
  },
  {
    "id": 1256006,
    "name": "San Isidro",
    "latitude": 10.01361005,
    "longitude": -84.05908357,
    "type": "Ambulance Stations",
    "functionality": "Fully Functional",
    "country": "Costa Rica",
    "district": "Heredia",
    "affiliation": "Red Cross Red Crescent Facility",
    "region": "Americas",
    "icon": "https://i.ibb.co/713rxGr/Ambulance-Station.png"
  },
  {
    "id": 1256009,
    "name": "San Rafael",
    "latitude": 10.01189088,
    "longitude": -84.10144605,
    "type": "Ambulance Stations",
    "functionality": "Fully Functional",
    "country": "Costa Rica",
    "district": "heredia",
    "affiliation": "Red Cross Red Crescent Facility",
    "region": "Americas",
    "icon": "https://i.ibb.co/713rxGr/Ambulance-Station.png"
  },
  {
    "id": 1256013,
    "name": "San Antonio de Belen",
    "latitude": 9.975640764,
    "longitude": -84.1878017,
    "type": "Ambulance Stations",
    "functionality": "Fully Functional",
    "country": "Costa Rica",
    "district": "Heredia",
    "affiliation": "Red Cross Red Crescent Facility",
    "region": "Americas",
    "icon": "https://i.ibb.co/713rxGr/Ambulance-Station.png"
  },
  {
    "id": 1256015,
    "name": "San Joaquin",
    "latitude": 10.00280203,
    "longitude": -84.15327318,
    "type": "Ambulance Stations",
    "functionality": "Fully Functional",
    "country": "Costa Rica",
    "district": "Heredia",
    "affiliation": "Red Cross Red Crescent Facility",
    "region": "Americas",
    "icon": "https://i.ibb.co/713rxGr/Ambulance-Station.png"
  },
  {
    "id": 1256016,
    "name": "Santa Barbara",
    "latitude": 10.03983401,
    "longitude": -84.16027867,
    "type": "Ambulance Stations",
    "functionality": "Fully Functional",
    "country": "Costa Rica",
    "district": "heredia",
    "affiliation": "Red Cross Red Crescent Facility",
    "region": "Americas",
    "icon": "https://i.ibb.co/713rxGr/Ambulance-Station.png"
  },
  {
    "id": 1256018,
    "name": "Puerto Viejo",
    "latitude": 10.45275407,
    "longitude": -84.01006646,
    "type": "Ambulance Stations",
    "functionality": "Fully Functional",
    "country": "Costa Rica",
    "district": "Heredia",
    "affiliation": "Red Cross Red Crescent Facility",
    "region": "Americas",
    "icon": "https://i.ibb.co/713rxGr/Ambulance-Station.png"
  },
  {
    "id": 1256020,
    "name": "San Pablo",
    "latitude": 9.998611094,
    "longitude": -84.09224727,
    "type": "Ambulance Stations",
    "functionality": "Fully Functional",
    "country": "Costa Rica",
    "district": "Heredia",
    "affiliation": "Red Cross Red Crescent Facility",
    "region": "Americas",
    "icon": "https://i.ibb.co/713rxGr/Ambulance-Station.png"
  },
  {
    "id": 1256031,
    "name": "San Rafael de Alajuela",
    "latitude": 9.972559971,
    "longitude": -84.21372155,
    "type": "Ambulance Stations",
    "functionality": "Fully Functional",
    "country": "Costa Rica",
    "district": "Alajuela",
    "affiliation": "Red Cross Red Crescent Facility",
    "region": "Americas",
    "icon": "https://i.ibb.co/713rxGr/Ambulance-Station.png"
  },
  {
    "id": 1256032,
    "name": "La Virgen",
    "latitude": 10.39067117,
    "longitude": -84.13935797,
    "type": "Ambulance Stations",
    "functionality": "Fully Functional",
    "country": "Costa Rica",
    "district": "Heredia",
    "affiliation": "Red Cross Red Crescent Facility",
    "region": "Americas",
    "icon": "https://i.ibb.co/713rxGr/Ambulance-Station.png"
  },
  {
    "id": 1256039,
    "name": "Liberia",
    "latitude": 10.63708584,
    "longitude": -85.43047675,
    "type": "Ambulance Stations",
    "functionality": "Fully Functional",
    "country": "Costa Rica",
    "district": "Guanacaste",
    "affiliation": "Red Cross Red Crescent Facility",
    "region": "Americas",
    "icon": "https://i.ibb.co/713rxGr/Ambulance-Station.png"
  },
  {
    "id": 1256041,
    "name": "La Cruz",
    "latitude": 11.07272417,
    "longitude": -85.63221949,
    "type": "Ambulance Stations",
    "functionality": "Fully Functional",
    "country": "Costa Rica",
    "district": "Guanacaste",
    "affiliation": "Red Cross Red Crescent Facility",
    "region": "Americas",
    "icon": "https://i.ibb.co/713rxGr/Ambulance-Station.png"
  },
  {
    "id": 1256211,
    "name": "Bagases",
    "latitude": 10.52496776,
    "longitude": -85.25552643,
    "type": "Ambulance Stations",
    "functionality": "Fully Functional",
    "country": "Costa Rica",
    "district": "Guanacaste",
    "affiliation": "Red Cross Red Crescent Facility",
    "region": "Americas",
    "icon": "https://i.ibb.co/713rxGr/Ambulance-Station.png"
  },
  {
    "id": 1256217,
    "name": "Cañas",
    "latitude": 10.42403826,
    "longitude": -85.09123704,
    "type": "Ambulance Stations",
    "functionality": "Fully Functional",
    "country": "Costa Rica",
    "district": "Guanacaste",
    "affiliation": "Red Cross Red Crescent Facility",
    "region": "Americas",
    "icon": "https://i.ibb.co/713rxGr/Ambulance-Station.png"
  },
  {
    "id": 1256218,
    "name": "Tilarán",
    "latitude": 10.47503819,
    "longitude": -85.05219456,
    "type": "Ambulance Stations",
    "functionality": "Fully Functional",
    "country": "Costa Rica",
    "district": "Guanacaste",
    "affiliation": "Red Cross Red Crescent Facility",
    "region": "Americas",
    "icon": "https://i.ibb.co/713rxGr/Ambulance-Station.png"
  },
  {
    "id": 1256225,
    "name": "Las Juntas",
    "latitude": 10.28058021,
    "longitude": -84.96299993,
    "type": "Ambulance Stations",
    "functionality": "Fully Functional",
    "country": "Costa Rica",
    "district": "Guanacaste",
    "affiliation": "Red Cross Red Crescent Facility",
    "region": "Americas",
    "icon": "https://i.ibb.co/713rxGr/Ambulance-Station.png"
  },
  {
    "id": 1256233,
    "name": "Colorado",
    "latitude": 10.18549156,
    "longitude": -85.10863971,
    "type": "Ambulance Stations",
    "functionality": "Fully Functional",
    "country": "Costa Rica",
    "district": "Guanacaste",
    "affiliation": "Red Cross Red Crescent Facility",
    "region": "Americas",
    "icon": "https://i.ibb.co/713rxGr/Ambulance-Station.png"
  },
  {
    "id": 1256258,
    "name": "Filadelfia",
    "latitude": 10.44560604,
    "longitude": -85.55222021,
    "type": "Ambulance Stations",
    "functionality": "Fully Functional",
    "country": "Costa Rica",
    "district": "Guanacaste",
    "affiliation": "Red Cross Red Crescent Facility",
    "region": "Americas",
    "icon": "https://i.ibb.co/713rxGr/Ambulance-Station.png"
  },
  {
    "id": 1256260,
    "name": "Sardinal",
    "latitude": 10.51596908,
    "longitude": -85.64919952,
    "type": "Ambulance Stations",
    "functionality": "Fully Functional",
    "country": "Costa Rica",
    "district": "Guanacaste",
    "affiliation": "Red Cross Red Crescent Facility",
    "region": "Americas",
    "icon": "https://i.ibb.co/713rxGr/Ambulance-Station.png"
  },
  {
    "id": 1256262,
    "name": "Santa Cruz",
    "latitude": 10.25905638,
    "longitude": -85.58653765,
    "type": "Ambulance Stations",
    "functionality": "Fully Functional",
    "country": "Costa Rica",
    "district": "Guanacaste",
    "affiliation": "Red Cross Red Crescent Facility",
    "region": "Americas",
    "icon": "https://i.ibb.co/713rxGr/Ambulance-Station.png"
  },
  {
    "id": 1256264,
    "name": "Cartagena",
    "latitude": 10.38163885,
    "longitude": -85.67655336,
    "type": "Ambulance Stations",
    "functionality": "Fully Functional",
    "country": "Costa Rica",
    "district": "Guanacaste",
    "affiliation": "Red Cross Red Crescent Facility",
    "region": "Americas",
    "icon": "https://i.ibb.co/713rxGr/Ambulance-Station.png"
  },
  {
    "id": 1256267,
    "name": "Nicoya",
    "latitude": 10.14646405,
    "longitude": -85.45590711,
    "type": "Ambulance Stations",
    "functionality": "Fully Functional",
    "country": "Costa Rica",
    "district": "Guanacaste",
    "affiliation": "Red Cross Red Crescent Facility",
    "region": "Americas",
    "icon": "https://i.ibb.co/713rxGr/Ambulance-Station.png"
  },
  {
    "id": 1256270,
    "name": "Nandayure",
    "latitude": 9.995861974,
    "longitude": -85.25200132,
    "type": "Ambulance Stations",
    "functionality": "Fully Functional",
    "country": "Costa Rica",
    "district": "Guanacaste",
    "affiliation": "Red Cross Red Crescent Facility",
    "region": "Americas",
    "icon": "https://i.ibb.co/713rxGr/Ambulance-Station.png"
  },
  {
    "id": 1256274,
    "name": "Upala",
    "latitude": 10.89894054,
    "longitude": -85.01572478,
    "type": "Ambulance Stations",
    "functionality": "Fully Functional",
    "country": "Costa Rica",
    "district": "Guanacaste",
    "affiliation": "Red Cross Red Crescent Facility",
    "region": "Americas",
    "icon": "https://i.ibb.co/713rxGr/Ambulance-Station.png"
  },
  {
    "id": 1256276,
    "name": "Guayabo",
    "latitude": 10.70533578,
    "longitude": -85.2251682,
    "type": "Ambulance Stations",
    "functionality": "Fully Functional",
    "country": "Costa Rica",
    "district": "Guancaste",
    "affiliation": "Red Cross Red Crescent Facility",
    "region": "Americas",
    "icon": "https://i.ibb.co/713rxGr/Ambulance-Station.png"
  },
  {
    "id": 1256283,
    "name": "Belen",
    "latitude": 10.41074911,
    "longitude": -85.58449624,
    "type": "Ambulance Stations",
    "functionality": "Fully Functional",
    "country": "Costa Rica",
    "district": "Guanacaste",
    "affiliation": "Red Cross Red Crescent Facility",
    "region": "Americas",
    "icon": "https://i.ibb.co/713rxGr/Ambulance-Station.png"
  },
  {
    "id": 1256286,
    "name": "Hojancha",
    "latitude": 10.06110755,
    "longitude": -85.41863882,
    "type": "Ambulance Stations",
    "functionality": "Fully Functional",
    "country": "Costa Rica",
    "district": "Guanacaste",
    "affiliation": "Red Cross Red Crescent Facility",
    "region": "Americas",
    "icon": "https://i.ibb.co/713rxGr/Ambulance-Station.png"
  },
  {
    "id": 1256289,
    "name": "Nosara",
    "latitude": 9.980748132,
    "longitude": -85.6504724,
    "type": "Ambulance Stations",
    "functionality": "Fully Functional",
    "country": "Costa Rica",
    "district": "Guancaste",
    "affiliation": "Red Cross Red Crescent Facility",
    "region": "Americas",
    "icon": "https://i.ibb.co/713rxGr/Ambulance-Station.png"
  },
  {
    "id": 1256292,
    "name": "Miramar",
    "latitude": 10.09375951,
    "longitude": -84.72957347,
    "type": "Ambulance Stations",
    "functionality": "Fully Functional",
    "country": "Costa Rica",
    "district": "Puntarenas",
    "affiliation": "Red Cross Red Crescent Facility",
    "region": "Americas",
    "icon": "https://i.ibb.co/713rxGr/Ambulance-Station.png"
  },
  {
    "id": 1256294,
    "name": "Puntarenas",
    "latitude": 9.977842895,
    "longitude": -84.83733471,
    "type": "Ambulance Stations",
    "functionality": "Fully Functional",
    "country": "Costa Rica",
    "district": "Puntarenas",
    "affiliation": "Red Cross Red Crescent Facility",
    "region": "Americas",
    "icon": "https://i.ibb.co/713rxGr/Ambulance-Station.png"
  },
  {
    "id": 1256306,
    "name": "Barranca",
    "latitude": 9.989765048,
    "longitude": -84.71014125,
    "type": "Ambulance Stations",
    "functionality": "Fully Functional",
    "country": "Costa Rica",
    "district": "Puntarenas",
    "affiliation": "Red Cross Red Crescent Facility",
    "region": "Americas",
    "icon": "https://i.ibb.co/713rxGr/Ambulance-Station.png"
  },
  {
    "id": 1256309,
    "name": "Esparza",
    "latitude": 9.992113842,
    "longitude": -84.66736029,
    "type": "Ambulance Stations",
    "functionality": "Fully Functional",
    "country": "Costa Rica",
    "district": "Puntarenas",
    "affiliation": "Red Cross Red Crescent Facility",
    "region": "Americas",
    "icon": "https://i.ibb.co/713rxGr/Ambulance-Station.png"
  },
  {
    "id": 1256312,
    "name": "Jicaral",
    "latitude": 9.960856547,
    "longitude": -85.11514953,
    "type": "Ambulance Stations",
    "functionality": "Fully Functional",
    "country": "Costa Rica",
    "district": "Puntarenas",
    "affiliation": "Red Cross Red Crescent Facility",
    "region": "Americas",
    "icon": "https://i.ibb.co/713rxGr/Ambulance-Station.png"
  },
  {
    "id": 1256316,
    "name": "Jaco",
    "latitude": 9.612163668,
    "longitude": -84.62603135,
    "type": "Ambulance Stations",
    "functionality": "Fully Functional",
    "country": "Costa Rica",
    "district": "Puntarenas",
    "affiliation": "Red Cross Red Crescent Facility",
    "region": "Americas",
    "icon": "https://i.ibb.co/713rxGr/Ambulance-Station.png"
  },
  {
    "id": 1256319,
    "name": "Parrita",
    "latitude": 9.520279898,
    "longitude": -84.33224581,
    "type": "Ambulance Stations",
    "functionality": "Fully Functional",
    "country": "Costa Rica",
    "district": "Puntarenas",
    "affiliation": "Red Cross Red Crescent Facility",
    "region": "Americas",
    "icon": "https://i.ibb.co/713rxGr/Ambulance-Station.png"
  },
  {
    "id": 1256325,
    "name": "Quepos",
    "latitude": 9.430169183,
    "longitude": -84.16256481,
    "type": "Ambulance Stations",
    "functionality": "Fully Functional",
    "country": "Costa Rica",
    "district": "Puntarenas",
    "affiliation": "Red Cross Red Crescent Facility",
    "region": "Americas",
    "icon": "https://i.ibb.co/713rxGr/Ambulance-Station.png"
  },
  {
    "id": 1256326,
    "name": "Paquera",
    "latitude": 9.820315096,
    "longitude": -84.93643364,
    "type": "Ambulance Stations",
    "functionality": "Fully Functional",
    "country": "Costa Rica",
    "district": "Puntarenas",
    "affiliation": "Red Cross Red Crescent Facility",
    "region": "Americas",
    "icon": "https://i.ibb.co/713rxGr/Ambulance-Station.png"
  },
  {
    "id": 1256329,
    "name": "Monteverde",
    "latitude": 10.32033744,
    "longitude": -84.82352658,
    "type": "Ambulance Stations",
    "functionality": "Fully Functional",
    "country": "Costa Rica",
    "district": "Puntarenas",
    "affiliation": "Red Cross Red Crescent Facility",
    "region": "Americas",
    "icon": "https://i.ibb.co/713rxGr/Ambulance-Station.png"
  },
  {
    "id": 1256384,
    "name": "Limón",
    "latitude": 9.991780519,
    "longitude": -83.02769247,
    "type": "Ambulance Stations",
    "functionality": "Fully Functional",
    "country": "Costa Rica",
    "district": "Limón",
    "affiliation": "Red Cross Red Crescent Facility",
    "region": "Americas",
    "icon": "https://i.ibb.co/713rxGr/Ambulance-Station.png"
  },
  {
    "id": 1256505,
    "name": "Valle de la Estrella",
    "latitude": 9.73568599,
    "longitude": -82.96957193,
    "type": "Ambulance Stations",
    "functionality": "Fully Functional",
    "country": "Costa Rica",
    "district": "Limón",
    "affiliation": "Red Cross Red Crescent Facility",
    "region": "Americas",
    "icon": "https://i.ibb.co/713rxGr/Ambulance-Station.png"
  },
  {
    "id": 1256521,
    "name": "Talamenca",
    "latitude": 9.625907122,
    "longitude": -82.85255229,
    "type": "Ambulance Stations",
    "functionality": "Fully Functional",
    "country": "Costa Rica",
    "district": "Limón",
    "affiliation": "Red Cross Red Crescent Facility",
    "region": "Americas",
    "icon": "https://i.ibb.co/713rxGr/Ambulance-Station.png"
  },
  {
    "id": 1256523,
    "name": "Siquirres",
    "latitude": 10.09875453,
    "longitude": -83.51838703,
    "type": "Ambulance Stations",
    "functionality": "Fully Functional",
    "country": "Costa Rica",
    "district": "Limón",
    "affiliation": "Red Cross Red Crescent Facility",
    "region": "Americas",
    "icon": "https://i.ibb.co/713rxGr/Ambulance-Station.png"
  },
  {
    "id": 1256538,
    "name": "Guacimo",
    "latitude": 10.20803038,
    "longitude": -83.69056687,
    "type": "Ambulance Stations",
    "functionality": "Fully Functional",
    "country": "Costa Rica",
    "district": "Limón",
    "affiliation": "Red Cross Red Crescent Facility",
    "region": "Americas",
    "icon": "https://i.ibb.co/713rxGr/Ambulance-Station.png"
  },
  {
    "id": 1256549,
    "name": "Guapiles",
    "latitude": 10.19889354,
    "longitude": -83.78629304,
    "type": "Ambulance Stations",
    "functionality": "Fully Functional",
    "country": "Costa Rica",
    "district": "Limón",
    "affiliation": "Red Cross Red Crescent Facility",
    "region": "Americas",
    "icon": "https://i.ibb.co/713rxGr/Ambulance-Station.png"
  },
  {
    "id": 1256553,
    "name": "Cariari",
    "latitude": 10.36128,
    "longitude": -83.735511,
    "type": "Ambulance Stations",
    "functionality": "Fully Functional",
    "country": "Costa Rica",
    "district": "Limón",
    "affiliation": "Red Cross Red Crescent Facility",
    "region": "Americas",
    "icon": "https://i.ibb.co/713rxGr/Ambulance-Station.png"
  },
  {
    "id": 1256556,
    "name": "Batan",
    "latitude": 10.08490418,
    "longitude": -83.34559607,
    "type": "Ambulance Stations",
    "functionality": "Fully Functional",
    "country": "Costa Rica",
    "district": "Limón",
    "affiliation": "Red Cross Red Crescent Facility",
    "region": "Americas",
    "icon": "https://i.ibb.co/713rxGr/Ambulance-Station.png"
  },
  {
    "id": 1256557,
    "name": "El Porvenir",
    "latitude": 10.4489748,
    "longitude": -83.81358264,
    "type": "Ambulance Stations",
    "functionality": "Fully Functional",
    "country": "Costa Rica",
    "district": "Limón",
    "affiliation": "Red Cross Red Crescent Facility",
    "region": "Americas",
    "icon": "https://i.ibb.co/713rxGr/Ambulance-Station.png"
  },
  {
    "id": 1256559,
    "name": "Pérez Zeledón",
    "latitude": 9.371751183,
    "longitude": -83.70261104,
    "type": "Ambulance Stations",
    "functionality": "Fully Functional",
    "country": "Costa Rica",
    "district": "Zona Sur.",
    "affiliation": "Red Cross Red Crescent Facility",
    "region": "Americas",
    "icon": "https://i.ibb.co/713rxGr/Ambulance-Station.png"
  },
  {
    "id": 1256560,
    "name": "Buenos Aires",
    "latitude": 9.173830247,
    "longitude": -83.33647366,
    "type": "Ambulance Stations",
    "functionality": "Fully Functional",
    "country": "Costa Rica",
    "district": "Zona Sur",
    "affiliation": "Red Cross Red Crescent Facility",
    "region": "Americas",
    "icon": "https://i.ibb.co/713rxGr/Ambulance-Station.png"
  },
  {
    "id": 1256568,
    "name": "Palmar Norte",
    "latitude": 8.63615952,
    "longitude": -83.45705354,
    "type": "Ambulance Stations",
    "functionality": "Fully Functional",
    "country": "Costa Rica",
    "district": "Zona Sur",
    "affiliation": "Red Cross Red Crescent Facility",
    "region": "Americas",
    "icon": "https://i.ibb.co/713rxGr/Ambulance-Station.png"
  },
  {
    "id": 1257728,
    "name": "Ciudad Cortes",
    "latitude": 8.966860726,
    "longitude": -83.52160789,
    "type": "Ambulance Stations",
    "functionality": "Fully Functional",
    "country": "Costa Rica",
    "district": "Zona Sur",
    "affiliation": "Red Cross Red Crescent Facility",
    "region": "Americas",
    "icon": "https://i.ibb.co/713rxGr/Ambulance-Station.png"
  },
  {
    "id": 1257729,
    "name": "Ciudad Neily",
    "latitude": 8.650554047,
    "longitude": -82.94301374,
    "type": "Ambulance Stations",
    "functionality": "Fully Functional",
    "country": "Costa Rica",
    "district": "Zona Sur",
    "affiliation": "Red Cross Red Crescent Facility",
    "region": "Americas",
    "icon": "https://i.ibb.co/713rxGr/Ambulance-Station.png"
  },
  {
    "id": 1257730,
    "name": "Golfito",
    "latitude": 8.619750222,
    "longitude": -83.14628069,
    "type": "Ambulance Stations",
    "functionality": "Fully Functional",
    "country": "Costa Rica",
    "district": "Zona Sur",
    "affiliation": "Red Cross Red Crescent Facility",
    "region": "Americas",
    "icon": "https://i.ibb.co/713rxGr/Ambulance-Station.png"
  },
  {
    "id": 1257731,
    "name": "Potrero Grande",
    "latitude": 9.01737626,
    "longitude": -83.1734975,
    "type": "Ambulance Stations",
    "functionality": "Fully Functional",
    "country": "Costa Rica",
    "district": "Zona Sur",
    "affiliation": "Red Cross Red Crescent Facility",
    "region": "Americas",
    "icon": "https://i.ibb.co/713rxGr/Ambulance-Station.png"
  },
  {
    "id": 1257734,
    "name": "Laurel",
    "latitude": 8.441669488,
    "longitude": -82.90722233,
    "type": "Ambulance Stations",
    "functionality": "Fully Functional",
    "country": "Costa Rica",
    "district": "Zona Sur",
    "affiliation": "Red Cross Red Crescent Facility",
    "region": "Americas",
    "icon": "https://i.ibb.co/713rxGr/Ambulance-Station.png"
  },
  {
    "id": 1257737,
    "name": "Puerto Jiménez",
    "latitude": 8.53846997,
    "longitude": -83.30689091,
    "type": "Ambulance Stations",
    "functionality": "Fully Functional",
    "country": "Costa Rica",
    "district": "zona sur",
    "affiliation": "Red Cross Red Crescent Facility",
    "region": "Americas",
    "icon": "https://i.ibb.co/713rxGr/Ambulance-Station.png"
  },
  {
    "id": 1257741,
    "name": "Ciudad Quesada",
    "latitude": 10.32518497,
    "longitude": -84.43244697,
    "type": "Ambulance Stations",
    "functionality": "Fully Functional",
    "country": "Costa Rica",
    "district": "Zona Norte",
    "affiliation": "Red Cross Red Crescent Facility",
    "region": "Americas",
    "icon": "https://i.ibb.co/713rxGr/Ambulance-Station.png"
  },
  {
    "id": 1257743,
    "name": "Aguas Zarcas",
    "latitude": 10.37344415,
    "longitude": -84.3377214,
    "type": "Ambulance Stations",
    "functionality": "Fully Functional",
    "country": "Costa Rica",
    "district": "Zona Norte",
    "affiliation": "Red Cross Red Crescent Facility",
    "region": "Americas",
    "icon": "https://i.ibb.co/713rxGr/Ambulance-Station.png"
  },
  {
    "id": 1257744,
    "name": "Venecia",
    "latitude": 10.35462742,
    "longitude": -84.27239148,
    "type": "Ambulance Stations",
    "functionality": "Fully Functional",
    "country": "Costa Rica",
    "district": "Zona Norte, San Carlos.",
    "affiliation": "Red Cross Red Crescent Facility",
    "region": "Americas",
    "icon": "https://i.ibb.co/713rxGr/Ambulance-Station.png"
  },
  {
    "id": 1257745,
    "name": "Pital",
    "latitude": 10.45680502,
    "longitude": -84.27339367,
    "type": "Ambulance Stations",
    "functionality": "Fully Functional",
    "country": "Costa Rica",
    "district": "Zona Norte",
    "affiliation": "Red Cross Red Crescent Facility",
    "region": "Americas",
    "icon": "https://i.ibb.co/713rxGr/Ambulance-Station.png"
  },
  {
    "id": 1257748,
    "name": "Rio Cuarto",
    "latitude": 10.34325088,
    "longitude": -84.21572136,
    "type": "Ambulance Stations",
    "functionality": "Fully Functional",
    "country": "Costa Rica",
    "district": "Zona Norte",
    "affiliation": "Red Cross Red Crescent Facility",
    "region": "Americas",
    "icon": "https://i.ibb.co/713rxGr/Ambulance-Station.png"
  },
  {
    "id": 1257750,
    "name": "San Miguel",
    "latitude": 10.318752,
    "longitude": -84.17985746,
    "type": "Ambulance Stations",
    "functionality": "Fully Functional",
    "country": "Costa Rica",
    "district": "Zona Norte",
    "affiliation": "Red Cross Red Crescent Facility",
    "region": "Americas",
    "icon": "https://i.ibb.co/713rxGr/Ambulance-Station.png"
  },
  {
    "id": 1257751,
    "name": "San Isidro de Peñas Blancas",
    "latitude": 10.38023372,
    "longitude": -84.57880209,
    "type": "Ambulance Stations",
    "functionality": "Fully Functional",
    "country": "Costa Rica",
    "district": "Zona Norte",
    "affiliation": "Red Cross Red Crescent Facility",
    "region": "Americas",
    "icon": "https://i.ibb.co/713rxGr/Ambulance-Station.png"
  },
  {
    "id": 1257753,
    "name": "Santa Rosa de Poco sol",
    "latitude": 10.62464238,
    "longitude": -84.5279034,
    "type": "Ambulance Stations",
    "functionality": "Fully Functional",
    "country": "Costa Rica",
    "district": "Zona Norte",
    "affiliation": "Red Cross Red Crescent Facility",
    "region": "Americas",
    "icon": "https://i.ibb.co/713rxGr/Ambulance-Station.png"
  },
  {
    "id": 1257755,
    "name": "Los Chiles",
    "latitude": 11.0310542,
    "longitude": -84.71744866,
    "type": "Ambulance Stations",
    "functionality": "Fully Functional",
    "country": "Costa Rica",
    "district": "ZOna Norte",
    "affiliation": "Red Cross Red Crescent Facility",
    "region": "Americas",
    "icon": "https://i.ibb.co/713rxGr/Ambulance-Station.png"
  },
  {
    "id": 1257759,
    "name": "Guatuso",
    "latitude": 10.66955179,
    "longitude": -84.82050271,
    "type": "Ambulance Stations",
    "functionality": "Fully Functional",
    "country": "Costa Rica",
    "district": "Zona Norte",
    "affiliation": "Red Cross Red Crescent Facility",
    "region": "Americas",
    "icon": "https://i.ibb.co/713rxGr/Ambulance-Station.png"
  },
  {
    "id": 1255952,
    "name": "Henry Dunant yaoundé",
    "latitude": 3.500001,
    "longitude": 11,
    "type": "Hospitals",
    "functionality": "Fully Functional",
    "country": "Cameroon",
    "district": "Centre",
    "affiliation": "Red Cross Red Crescent Facility",
    "region": "Africa",
    "icon": "https://i.ibb.co/cvm3m3h/Hospital.png"
  },
  {
    "id": 1252620,
    "name": "Polyclinique croix rouge Rdc",
    "latitude": -4.320132,
    "longitude": 15.314655,
    "type": "Primary Health Care Centres",
    "functionality": "Fully Functional",
    "country": "Democratic Republic of Congo",
    "district": "Province ville de kinshasa",
    "affiliation": "Red Cross Red Crescent Facility",
    "region": "Africa",
    "icon": "https://i.ibb.co/yhYWw9Q/PHC-Centre.png"
  },
  {
    "id": 1252388,
    "name": "Centre de Santé Intégré de Mpoumako",
    "latitude": 3.85306,
    "longitude": 10.52011,
    "type": "Primary Health Care Centres",
    "functionality": "Partially Functional",
    "country": "Congo",
    "district": "district de Ngabé.",
    "affiliation": "Red Cross Red Crescent Facility",
    "region": "Africa",
    "icon": "https://i.ibb.co/yhYWw9Q/PHC-Centre.png"
  },
  {
    "id": 1252734,
    "name": "Zeynep M. Nedim Oyvar Nursing Home and Elderly Care Center",
    "latitude": 40.9070207,
    "longitude": 29.2406866,
    "type": "Residential Facilities",
    "functionality": "Fully Functional",
    "country": "Turkey",
    "district": "İstanbul",
    "affiliation": "Other",
    "region": "Europe",
    "icon": "https://i.ibb.co/Yh8cmvZ/Residential-Facility.png"
  },
  {
    "id": 1252743,
    "name": "Kaynasli-Akcakoca Nursing Home",
    "latitude": 40.77134,
    "longitude": 31.311031,
    "type": "Residential Facilities",
    "functionality": "Fully Functional",
    "country": "Turkey",
    "district": "Duzce",
    "affiliation": "Other",
    "region": "Europe",
    "icon": "https://i.ibb.co/Yh8cmvZ/Residential-Facility.png"
  },
  {
    "id": 1252751,
    "name": "Saye Yesilkoy Nursing Home and Elderly Care Center",
    "latitude": 40.9595981,
    "longitude": 28.8141818,
    "type": "Residential Facilities",
    "functionality": "Partially Functional",
    "country": "Turkey",
    "district": "Istanbul",
    "affiliation": "Other",
    "region": "Europe",
    "icon": "https://i.ibb.co/Yh8cmvZ/Residential-Facility.png"
  },
  {
    "id": 1255006,
    "name": "Middle Anatolia Regional Blood Center",
    "latitude": 39.93459,
    "longitude": 32.88444749,
    "type": "Blood Centres",
    "functionality": "Fully Functional",
    "country": "Turkey",
    "district": "Ankara",
    "affiliation": "Red Cross Red Crescent Facility",
    "region": "Europe",
    "icon": "https://i.ibb.co/fCzwY1Y/Blood-Centre.png"
  },
  {
    "id": 1255074,
    "name": "European Regional Blood Center",
    "latitude": 41.056158,
    "longitude": 28.830069,
    "type": "Blood Centres",
    "functionality": "Fully Functional",
    "country": "Turkey",
    "district": "İstanbul",
    "affiliation": "Red Cross Red Crescent Facility",
    "region": "Europe",
    "icon": "https://i.ibb.co/fCzwY1Y/Blood-Centre.png"
  },
  {
    "id": 1255109,
    "name": "Western Mediterranean Regional Blood Center",
    "latitude": 36.89933,
    "longitude": 30.70815,
    "type": "Blood Centres",
    "functionality": "Fully Functional",
    "country": "Turkey",
    "district": "Antalya",
    "affiliation": "Red Cross Red Crescent Facility",
    "region": "Europe",
    "icon": "https://i.ibb.co/fCzwY1Y/Blood-Centre.png"
  },
  {
    "id": 1255126,
    "name": "Western Anatolia Regional Blood Center",
    "latitude": 39.78826,
    "longitude": 30.47597,
    "type": "Blood Centres",
    "functionality": "Fully Functional",
    "country": "Turkey",
    "district": "Eskişehir",
    "affiliation": "Red Cross Red Crescent Facility",
    "region": "Europe",
    "icon": "https://i.ibb.co/fCzwY1Y/Blood-Centre.png"
  },
  {
    "id": 1255231,
    "name": "Western Black Sea Regional Blood Center",
    "latitude": 40.840164,
    "longitude": 31.15404499,
    "type": "Blood Centres",
    "functionality": "Fully Functional",
    "country": "Turkey",
    "district": "Düzce",
    "affiliation": "Red Cross Red Crescent Facility",
    "region": "Europe",
    "icon": "https://i.ibb.co/fCzwY1Y/Blood-Centre.png"
  },
  {
    "id": 1255281,
    "name": "Eastern Mediterranean Regional Blood Center",
    "latitude": 37.063788,
    "longitude": 37.370942,
    "type": "Blood Centres",
    "functionality": "Fully Functional",
    "country": "Turkey",
    "district": "Gaziantep",
    "affiliation": "Red Cross Red Crescent Facility",
    "region": "Europe",
    "icon": "https://i.ibb.co/fCzwY1Y/Blood-Centre.png"
  },
  {
    "id": 1255301,
    "name": "Eastern Anatolia Regional Blood Center",
    "latitude": 39.8845188,
    "longitude": 41.2289388,
    "type": "Blood Centres",
    "functionality": "Fully Functional",
    "country": "Turkey",
    "district": "Erzurum",
    "affiliation": "Red Cross Red Crescent Facility",
    "region": "Europe",
    "icon": "https://i.ibb.co/fCzwY1Y/Blood-Centre.png"
  },
  {
    "id": 1255307,
    "name": "Eastern Black Sea Regional Blood Center",
    "latitude": 41.005043,
    "longitude": 39.714285,
    "type": "Blood Centres",
    "functionality": "Fully Functional",
    "country": "Turkey",
    "district": "Trabzon",
    "affiliation": "Red Cross Red Crescent Facility",
    "region": "Europe",
    "icon": "https://i.ibb.co/fCzwY1Y/Blood-Centre.png"
  },
  {
    "id": 1255315,
    "name": "Aegean Regional Blood Center",
    "latitude": 38.461423,
    "longitude": 27.18724599,
    "type": "Blood Centres",
    "functionality": "Fully Functional",
    "country": "Turkey",
    "district": "İzmir",
    "affiliation": "Red Cross Red Crescent Facility",
    "region": "Europe",
    "icon": "https://i.ibb.co/fCzwY1Y/Blood-Centre.png"
  },
  {
    "id": 1255443,
    "name": "South Anatolia Regional Blood Center",
    "latitude": 37.92827,
    "longitude": 40.1766,
    "type": "Blood Centres",
    "functionality": "Fully Functional",
    "country": "Turkey",
    "district": "Diyarbakır",
    "affiliation": "Red Cross Red Crescent Facility",
    "region": "Europe",
    "icon": "https://i.ibb.co/fCzwY1Y/Blood-Centre.png"
  },
  {
    "id": 1255452,
    "name": "South West Anatolia Regional Blood Center",
    "latitude": 38.341386,
    "longitude": 38.318806,
    "type": "Blood Centres",
    "functionality": "Fully Functional",
    "country": "Turkey",
    "district": "Malatya",
    "affiliation": "Red Cross Red Crescent Facility",
    "region": "Europe",
    "icon": "https://i.ibb.co/fCzwY1Y/Blood-Centre.png"
  },
  {
    "id": 1255478,
    "name": "South Aegean Regional Blood Center",
    "latitude": 37.80058,
    "longitude": 29.02008,
    "type": "Blood Centres",
    "functionality": "Fully Functional",
    "country": "Turkey",
    "district": "Denizli",
    "affiliation": "Red Cross Red Crescent Facility",
    "region": "Europe",
    "icon": "https://i.ibb.co/fCzwY1Y/Blood-Centre.png"
  },
  {
    "id": 1255489,
    "name": "South Marmara Regional Blood Center",
    "latitude": 40.26799,
    "longitude": 29.0838,
    "type": "Blood Centres",
    "functionality": "Fully Functional",
    "country": "Turkey",
    "district": "Bursa",
    "affiliation": "Red Cross Red Crescent Facility",
    "region": "Europe",
    "icon": "https://i.ibb.co/fCzwY1Y/Blood-Centre.png"
  },
  {
    "id": 1255525,
    "name": "South East Regional Blood Center",
    "latitude": 38.49625899,
    "longitude": 43.3766425,
    "type": "Blood Centres",
    "functionality": "Fully Functional",
    "country": "Turkey",
    "district": "Van",
    "affiliation": "Red Cross Red Crescent Facility",
    "region": "Europe",
    "icon": "https://i.ibb.co/fCzwY1Y/Blood-Centre.png"
  },
  {
    "id": 1255587,
    "name": "Central Anatolia Regional Blood Center",
    "latitude": 38.69726,
    "longitude": 35.53558,
    "type": "Blood Centres",
    "functionality": "Fully Functional",
    "country": "Turkey",
    "district": "Kayseri",
    "affiliation": "Red Cross Red Crescent Facility",
    "region": "Europe",
    "icon": "https://i.ibb.co/fCzwY1Y/Blood-Centre.png"
  },
  {
    "id": 1255663,
    "name": "North Marmara Regional Blood Center",
    "latitude": 40.9159201,
    "longitude": 29.1766885,
    "type": "Blood Centres",
    "functionality": "Fully Functional",
    "country": "Turkey",
    "district": "İstanbul",
    "affiliation": "Red Cross Red Crescent Facility",
    "region": "Europe",
    "icon": "https://i.ibb.co/fCzwY1Y/Blood-Centre.png"
  },
  {
    "id": 1255675,
    "name": "Middle Mediterranean Regional Blood Center",
    "latitude": 37.0344727,
    "longitude": 35.2973571,
    "type": "Blood Centres",
    "functionality": "Fully Functional",
    "country": "Turkey",
    "district": "Adana",
    "affiliation": "Red Cross Red Crescent Facility",
    "region": "Europe",
    "icon": "https://i.ibb.co/fCzwY1Y/Blood-Centre.png"
  },
  {
    "id": 1255682,
    "name": "Middle Black Sea Regional Blood Center",
    "latitude": 41.25093,
    "longitude": 36.31972,
    "type": "Blood Centres",
    "functionality": "Fully Functional",
    "country": "Turkey",
    "district": "Samsun",
    "affiliation": "Red Cross Red Crescent Facility",
    "region": "Europe",
    "icon": "https://i.ibb.co/fCzwY1Y/Blood-Centre.png"
  },
  {
    "id": 1267559,
    "name": "Centro de salud de Nkue",
    "latitude": 2.012851,
    "longitude": 10.468122,
    "type": "Primary Health Care Centres",
    "functionality": "Partially Functional",
    "country": "Equatorial Guinea",
    "district": "Nkue",
    "affiliation": "Red Cross Red Crescent Facility",
    "region": "Africa",
    "icon": "https://i.ibb.co/yhYWw9Q/PHC-Centre.png"
  },
  {
    "id": 1266925,
    "name": "Finnish Red Cross Blood Service",
    "latitude": 60.294846,
    "longitude": 24.847318,
    "type": "Blood Centres",
    "functionality": "Fully Functional",
    "country": "Finland",
    "district": "Uusimaa",
    "affiliation": "Private Facility",
    "region": "Europe",
    "icon": "https://i.ibb.co/fCzwY1Y/Blood-Centre.png"
  },
  {
    "id": 1258636,
    "name": "Gardabani Health Cabinet",
    "latitude": 41.460802,
    "longitude": 45.061204,
    "type": "Primary Health Care Centres",
    "functionality": "Fully Functional",
    "country": "Georgia",
    "district": "Gardabani Municipality",
    "affiliation": "Red Cross Red Crescent Facility",
    "region": "Europe",
    "icon": "https://i.ibb.co/yhYWw9Q/PHC-Centre.png"
  },
  {
    "id": 1258646,
    "name": "Doctor's Cabinet",
    "latitude": 41.464389,
    "longitude": 46.109318,
    "type": "Primary Health Care Centres",
    "functionality": "Fully Functional",
    "country": "Georgia",
    "district": "Dedoplistskaro Municipality",
    "affiliation": "Red Cross Red Crescent Facility",
    "region": "Europe",
    "icon": "https://i.ibb.co/yhYWw9Q/PHC-Centre.png"
  },
  {
    "id": 1256318,
    "name": "Centro Clínico de Especialidades",
    "latitude": 14.645303,
    "longitude": -90.510693,
    "type": "Primary Health Care Centres",
    "functionality": "Fully Functional",
    "country": "Guatemala",
    "district": "Departamento de Guatemala",
    "affiliation": "Red Cross Red Crescent Facility",
    "region": "Americas",
    "icon": "https://i.ibb.co/yhYWw9Q/PHC-Centre.png"
  },
  {
    "id": 1256279,
    "name": "YRCS General Hospital",
    "latitude": 15.414153,
    "longitude": 44.239568,
    "type": "Hospitals",
    "functionality": "Not Functional",
    "country": "Yemen",
    "district": "Bani Al-Harith, Sana'a Governorate",
    "affiliation": "Red Cross Red Crescent Facility",
    "region": "MENA",
    "icon": "https://i.ibb.co/cvm3m3h/Hospital.png"
  },
  {
    "id": 1256324,
    "name": "YRCS Amran Health Center",
    "latitude": 15.66,
    "longitude": 43.94,
    "type": "Primary Health Care Centres",
    "functionality": "Fully Functional",
    "country": "Yemen",
    "district": "Amran district, Amran Gov",
    "affiliation": "Red Cross Red Crescent Facility",
    "region": "MENA",
    "icon": "https://i.ibb.co/yhYWw9Q/PHC-Centre.png"
  },
  {
    "id": 1256346,
    "name": "YRCS Al-Mahweet Health Center",
    "latitude": 15.468039,
    "longitude": 43.543059,
    "type": "Primary Health Care Centres",
    "functionality": "Fully Functional",
    "country": "Yemen",
    "district": "Al-Mahweet city, Al-Mahweet Gov",
    "affiliation": "Red Cross Red Crescent Facility",
    "region": "MENA",
    "icon": "https://i.ibb.co/yhYWw9Q/PHC-Centre.png"
  },
  {
    "id": 1256370,
    "name": "YRCS Shabwah Health center",
    "latitude": 14.527185,
    "longitude": 46.854943,
    "type": "Primary Health Care Centres",
    "functionality": "Fully Functional",
    "country": "Yemen",
    "district": "Ataq Dis, Shabwah GVO",
    "affiliation": "Red Cross Red Crescent Facility",
    "region": "MENA",
    "icon": "https://i.ibb.co/yhYWw9Q/PHC-Centre.png"
  },
  {
    "id": 1271113,
    "name": "IPS VACUNACION UNICENTRO",
    "latitude": 4.663899,
    "longitude": -74.066052,
    "type": "Other",
    "functionality": "Fully Functional",
    "country": "Colombia",
    "district": "Distrito Capital",
    "affiliation": "Private Facility",
    "region": "Americas",
    "icon": "https://i.ibb.co/C5SdLDV/Others.png"
  },
  {
    "id": 1271116,
    "name": "cruz roja colombiana seccional Huila",
    "latitude": 2.942469,
    "longitude": -75.293768,
    "type": "Primary Health Care Centres",
    "functionality": "Fully Functional",
    "country": "Colombia",
    "district": "MUNICIPIO",
    "affiliation": "Red Cross Red Crescent Facility",
    "region": "Americas",
    "icon": "https://i.ibb.co/yhYWw9Q/PHC-Centre.png"
  },
  {
    "id": 1271119,
    "name": "IPS Administrativa",
    "latitude": 4.663469,
    "longitude": -74.066003,
    "type": "Ambulance Stations",
    "functionality": "Fully Functional",
    "country": "Colombia",
    "district": "Distrito Capital",
    "affiliation": "Private Facility",
    "region": "Americas",
    "icon": "https://i.ibb.co/713rxGr/Ambulance-Station.png"
  },
  {
    "id": 1271120,
    "name": "Vacunación Calle 134",
    "latitude": 4.663851,
    "longitude": -74.06605,
    "type": "Other",
    "functionality": "Fully Functional",
    "country": "Colombia",
    "district": "Distrito Capital",
    "affiliation": "Private Facility",
    "region": "Americas",
    "icon": "https://i.ibb.co/C5SdLDV/Others.png"
  },
  {
    "id": 1271183,
    "name": "Vacunación  ASMU Avenida 68",
    "latitude": 4.672705,
    "longitude": -74.089483,
    "type": "Other",
    "functionality": "Fully Functional",
    "country": "Colombia",
    "district": "Distrito Capital",
    "affiliation": "Red Cross Red Crescent Facility",
    "region": "Americas",
    "icon": "https://i.ibb.co/C5SdLDV/Others.png"
  },
  {
    "id": 1271185,
    "name": "Servicio de Vacunación SAMU Alquería",
    "latitude": 4.607431,
    "longitude": -74.130527,
    "type": "Other",
    "functionality": "Fully Functional",
    "country": "Colombia",
    "district": "Distrito Capital",
    "affiliation": "Private Facility",
    "region": "Americas",
    "icon": "https://i.ibb.co/C5SdLDV/Others.png"
  },
  {
    "id": 1271656,
    "name": "SPR Kemin vastaanottokeskus",
    "latitude": 65.736006,
    "longitude": 24.565357,
    "type": "Other",
    "functionality": "Fully Functional",
    "country": "Finland",
    "district": "Lapland, Finland",
    "affiliation": "Red Cross Red Crescent Facility",
    "region": "Europe",
    "icon": "https://i.ibb.co/C5SdLDV/Others.png"
  },
  {
    "id": 1271773,
    "name": "Jyväskylän vastaanottokeskus",
    "latitude": 62.249476,
    "longitude": 25.761782,
    "type": "Other",
    "functionality": "Fully Functional",
    "country": "Finland",
    "district": "Keski-Suomi",
    "affiliation": "Red Cross Red Crescent Facility",
    "region": "Europe",
    "icon": "https://i.ibb.co/C5SdLDV/Others.png"
  },
  {
    "id": 1273849,
    "name": "Mikkelin vastaanottokeskus, Pieksämäen toimipiste",
    "latitude": 62.291269,
    "longitude": 27.127775,
    "type": "Other",
    "functionality": "Fully Functional",
    "country": "Finland",
    "district": "Etelä-Savo",
    "affiliation": "Red Cross Red Crescent Facility",
    "region": "Europe",
    "icon": "https://i.ibb.co/C5SdLDV/Others.png"
  },
  {
    "id": 1274017,
    "name": "SPR Hämeenlinnan vastaanottokeskus",
    "latitude": 60.986431,
    "longitude": 24.467422,
    "type": "Other",
    "functionality": "Fully Functional",
    "country": "Finland",
    "district": "Hämeenlinna",
    "affiliation": "Red Cross Red Crescent Facility",
    "region": "Europe",
    "icon": "https://i.ibb.co/C5SdLDV/Others.png"
  },
  {
    "id": 1276356,
    "name": "Filial Distrito Nacional Nordeste",
    "latitude": 18.472351,
    "longitude": -69.91946,
    "type": "Primary Health Care Centres",
    "functionality": "Fully Functional",
    "country": "Dominican Republic",
    "district": "Distrito Nacional",
    "affiliation": "Red Cross Red Crescent Facility",
    "region": "Americas",
    "icon": "https://i.ibb.co/yhYWw9Q/PHC-Centre.png"
  },
  {
    "id": 1276376,
    "name": "YRCS Ibb Health Center",
    "latitude": 13.972601,
    "longitude": 44.1834,
    "type": "Primary Health Care Centres",
    "functionality": "Fully Functional",
    "country": "Yemen",
    "district": "Al-Mashana District, Ibb Governorate",
    "affiliation": "Red Cross Red Crescent Facility",
    "region": "MENA",
    "icon": "https://i.ibb.co/yhYWw9Q/PHC-Centre.png"
  },
  {
    "id": 1276381,
    "name": "YRCS (Sana'a Al-Amanah) Health Center",
    "latitude": 15.356362,
    "longitude": 44.197197,
    "type": "Primary Health Care Centres",
    "functionality": "Fully Functional",
    "country": "Yemen",
    "district": "Al-Tahrir District, Sanaa Al-Amanh",
    "affiliation": "Red Cross Red Crescent Facility",
    "region": "MENA",
    "icon": "https://i.ibb.co/yhYWw9Q/PHC-Centre.png"
  },
  {
    "id": 1276387,
    "name": "YRCS Dhamar Health Center",
    "latitude": 14.543263,
    "longitude": 44.399457,
    "type": "Other",
    "functionality": "Fully Functional",
    "country": "Yemen",
    "district": "Dhamar District, Dhamar Governorate",
    "affiliation": "Red Cross Red Crescent Facility",
    "region": "MENA",
    "icon": "https://i.ibb.co/C5SdLDV/Others.png"
  },
  {
    "id": 1276389,
    "name": "YRCS Aden Health Center",
    "latitude": 12.797137,
    "longitude": 45.035505,
    "type": "Primary Health Care Centres",
    "functionality": "Fully Functional",
    "country": "Yemen",
    "district": "Khormaksar District, Aden Governorate",
    "affiliation": "Red Cross Red Crescent Facility",
    "region": "MENA",
    "icon": "https://i.ibb.co/yhYWw9Q/PHC-Centre.png"
  },
  {
    "id": 1276392,
    "name": "YRCS Sadah Health Center",
    "latitude": 16.943621,
    "longitude": 43.763151,
    "type": "Primary Health Care Centres",
    "functionality": "Fully Functional",
    "country": "Yemen",
    "district": "Saada District , Saada Governorate",
    "affiliation": "Red Cross Red Crescent Facility",
    "region": "MENA",
    "icon": "https://i.ibb.co/yhYWw9Q/PHC-Centre.png"
  },
  {
    "id": 1276397,
    "name": "YRCS Abyan Health Center",
    "latitude": 13.130233,
    "longitude": 45.379486,
    "type": "Primary Health Care Centres",
    "functionality": "Fully Functional",
    "country": "Yemen",
    "district": "Zunjbar District, Abyan Governorate",
    "affiliation": "Red Cross Red Crescent Facility",
    "region": "MENA",
    "icon": "https://i.ibb.co/yhYWw9Q/PHC-Centre.png"
  },
  {
    "id": 1276473,
    "name": "Moris District Hospital (Gol Al-Dimah)",
    "latitude": 13.969323,
    "longitude": 44.699008,
    "type": "Hospitals",
    "functionality": "Partially Functional",
    "country": "Yemen",
    "district": "Moris District, Al.Dhalea governorate",
    "affiliation": "Red Cross Red Crescent Facility",
    "region": "MENA",
    "icon": "https://i.ibb.co/cvm3m3h/Hospital.png"
  },
  {
    "id": 1276491,
    "name": "Al-Anquob Health Center",
    "latitude": 14.591421,
    "longitude": 43.618025,
    "type": "Primary Health Care Centres",
    "functionality": "Fully Functional",
    "country": "Yemen",
    "district": "Kusmah District, Raimah Governorate",
    "affiliation": "Red Cross Red Crescent Facility",
    "region": "MENA",
    "icon": "https://i.ibb.co/yhYWw9Q/PHC-Centre.png"
  },
  {
    "id": 1276492,
    "name": "YRCS Hajjah Health Center",
    "latitude": 15.6937,
    "longitude": 43.603863,
    "type": "Other",
    "functionality": "Fully Functional",
    "country": "Yemen",
    "district": "Hajjah District, Hajjah Governorate",
    "affiliation": "Red Cross Red Crescent Facility",
    "region": "MENA",
    "icon": "https://i.ibb.co/C5SdLDV/Others.png"
  },
  {
    "id": 1276527,
    "name": "Al-Kbbah Health Center",
    "latitude": 14.671036,
    "longitude": 43.530174,
    "type": "Primary Health Care Centres",
    "functionality": "Not Functional",
    "country": "Yemen",
    "district": "Al.jabain district, Raimah Governorate",
    "affiliation": "Red Cross Red Crescent Facility",
    "region": "MENA",
    "icon": "https://i.ibb.co/yhYWw9Q/PHC-Centre.png"
  },
  {
    "id": 1276666,
    "name": "YRCS  Abass Health Unit",
    "latitude": 16.003323,
    "longitude": 43.19405,
    "type": "Primary Health Care Centres",
    "functionality": "Fully Functional",
    "country": "Yemen",
    "district": "Abass district, Hajjah Governorate",
    "affiliation": "Red Cross Red Crescent Facility",
    "region": "MENA",
    "icon": "https://i.ibb.co/yhYWw9Q/PHC-Centre.png"
  },
  {
    "id": 1276768,
    "name": "YRCS Mabiyan Health Unit",
    "latitude": 15.738657,
    "longitude": 43.559185,
    "type": "Primary Health Care Centres",
    "functionality": "Fully Functional",
    "country": "Yemen",
    "district": "Mabiyan district, Hajah Governorate",
    "affiliation": "Red Cross Red Crescent Facility",
    "region": "MENA",
    "icon": "https://i.ibb.co/yhYWw9Q/PHC-Centre.png"
  },
  {
    "id": 1276799,
    "name": "Thuabat Health Center",
    "latitude": 13.57372,
    "longitude": 44.033602,
    "type": "Primary Health Care Centres",
    "functionality": "Fully Functional",
    "country": "Yemen",
    "district": "Salah district, Taiz Governorate",
    "affiliation": "Red Cross Red Crescent Facility",
    "region": "MENA",
    "icon": "https://i.ibb.co/yhYWw9Q/PHC-Centre.png"
  },
  {
    "id": 1276819,
    "name": "YRCS Health Center (Syion)",
    "latitude": 15.925828,
    "longitude": 48.62584,
    "type": "Primary Health Care Centres",
    "functionality": "Fully Functional",
    "country": "Yemen",
    "district": "Shebam district, Hadramout Governorate",
    "affiliation": "Red Cross Red Crescent Facility",
    "region": "MENA",
    "icon": "https://i.ibb.co/yhYWw9Q/PHC-Centre.png"
  },
  {
    "id": 1276862,
    "name": "YRCS  Lahj Health Center",
    "latitude": 12.937886,
    "longitude": 45.012815,
    "type": "Primary Health Care Centres",
    "functionality": "Fully Functional",
    "country": "Yemen",
    "district": "Toban district, Lahj Governorate",
    "affiliation": "Red Cross Red Crescent Facility",
    "region": "MENA",
    "icon": "https://i.ibb.co/yhYWw9Q/PHC-Centre.png"
  },
  {
    "id": 1276865,
    "name": "YRCS (Sana'a Gov) Health Center",
    "latitude": 15.272983,
    "longitude": 44.235646,
    "type": "Primary Health Care Centres",
    "functionality": "Fully Functional",
    "country": "Yemen",
    "district": "Sanaa governorate",
    "affiliation": "Red Cross Red Crescent Facility",
    "region": "MENA",
    "icon": "https://i.ibb.co/yhYWw9Q/PHC-Centre.png"
  },
  {
    "id": 1276874,
    "name": "Al-Rawdah Health Center",
    "latitude": 15.495984,
    "longitude": 45.308761,
    "type": "Primary Health Care Centres",
    "functionality": "Fully Functional",
    "country": "Yemen",
    "district": "Marib district, Marib governorate",
    "affiliation": "Red Cross Red Crescent Facility",
    "region": "MENA",
    "icon": "https://i.ibb.co/yhYWw9Q/PHC-Centre.png"
  },
  {
    "id": 1276880,
    "name": "Al-Sowidiah (Dhobab ) Health Unit",
    "latitude": 12.945384,
    "longitude": 43.409441,
    "type": "Primary Health Care Centres",
    "functionality": "Not Functional",
    "country": "Yemen",
    "district": "Dhobab district, Taiz governorate",
    "affiliation": "Red Cross Red Crescent Facility",
    "region": "MENA",
    "icon": "https://i.ibb.co/yhYWw9Q/PHC-Centre.png"
  },
  {
    "id": 1276908,
    "name": "Al-Barh District Hospital",
    "latitude": 13.514814,
    "longitude": 43.726156,
    "type": "Hospitals",
    "functionality": "Fully Functional",
    "country": "Yemen",
    "district": "Maqbanah district ,Taiz governorate",
    "affiliation": "Organizational Facility",
    "region": "MENA",
    "icon": "https://i.ibb.co/cvm3m3h/Hospital.png"
  },
  {
    "id": 1276910,
    "name": "Somarah Emergency Center",
    "latitude": 14.123733,
    "longitude": 44.223287,
    "type": "Other",
    "functionality": "Fully Functional",
    "country": "Yemen",
    "district": "Al-Makhder district, Ibb Governorate",
    "affiliation": "Organizational Facility",
    "region": "MENA",
    "icon": "https://i.ibb.co/C5SdLDV/Others.png"
  },
  {
    "id": 1276911,
    "name": "Kohlan Afar Emergency Route Center",
    "latitude": 15.738612,
    "longitude": 43.712651,
    "type": "Other",
    "functionality": "Fully Functional",
    "country": "Yemen",
    "district": "Kohlan Afar district, Hajjah governorate",
    "affiliation": "Organizational Facility",
    "region": "MENA",
    "icon": "https://i.ibb.co/C5SdLDV/Others.png"
  },
  {
    "id": 1276913,
    "name": "YRCS - Maternity and Childhood Center",
    "latitude": 15.661067,
    "longitude": 43.937043,
    "type": "Other",
    "functionality": "Fully Functional",
    "country": "Yemen",
    "district": "Ammran district , Ammran governorate",
    "affiliation": "Red Cross Red Crescent Facility",
    "region": "MENA",
    "icon": "https://i.ibb.co/C5SdLDV/Others.png"
  },
  {
    "id": 1276932,
    "name": "Almahketh Health Center",
    "latitude": 15.647337,
    "longitude": 43.86726,
    "type": "Primary Health Care Centres",
    "functionality": "Fully Functional",
    "country": "Yemen",
    "district": "Almahketh district, Amran governorate",
    "affiliation": "Organizational Facility",
    "region": "MENA",
    "icon": "https://i.ibb.co/yhYWw9Q/PHC-Centre.png"
  },
  {
    "id": 1276933,
    "name": "Al-Raqqah Health Center",
    "latitude": 16.815455,
    "longitude": 43.344706,
    "type": "Primary Health Care Centres",
    "functionality": "Fully Functional",
    "country": "Yemen",
    "district": "Hedan district, Saadah governorate",
    "affiliation": "Organizational Facility",
    "region": "MENA",
    "icon": "https://i.ibb.co/yhYWw9Q/PHC-Centre.png"
  },
  {
    "id": 1278283,
    "name": "Kouvolan vastaanottokeskus",
    "latitude": 60.875113,
    "longitude": 26.737171,
    "type": "Other",
    "functionality": "Fully Functional",
    "country": "Finland",
    "district": "Kymenlaakso",
    "affiliation": "Red Cross Red Crescent Facility",
    "region": "Europe",
    "icon": "https://i.ibb.co/C5SdLDV/Others.png"
  },
  {
    "id": 1280479,
    "name": "Surkhet Eye Hospital",
    "latitude": 28.599707,
    "longitude": 81.618054,
    "type": "Hospitals",
    "functionality": "Fully Functional",
    "country": "Nepal",
    "district": "Karnali Province, Surkhet, Birendranagar",
    "affiliation": "Red Cross Red Crescent Facility",
    "region": "Asia Pacific",
    "icon": "https://i.ibb.co/cvm3m3h/Hospital.png"
  },
  {
    "id": 1280490,
    "name": "Shree Janaki Eye Hospital",
    "latitude": 26.738223,
    "longitude": 85.917276,
    "type": "Hospitals",
    "functionality": "Fully Functional",
    "country": "Nepal",
    "district": "Madhesh Province, Dhanusha, Janakpur",
    "affiliation": "Red Cross Red Crescent Facility",
    "region": "Asia Pacific",
    "icon": "https://i.ibb.co/cvm3m3h/Hospital.png"
  },
  {
    "id": 1280629,
    "name": "Health Clinic PMI HQ",
    "latitude": -6.241409,
    "longitude": 106.833237,
    "type": "Other",
    "functionality": "Fully Functional",
    "country": "Indonesia",
    "district": "South Jakarta",
    "affiliation": "Red Cross Red Crescent Facility",
    "region": "Asia Pacific",
    "icon": "https://i.ibb.co/C5SdLDV/Others.png"
  },
  {
    "id": 1280760,
    "name": "SPR Hämeenlinnan vastaanottokeskus",
    "latitude": 61.000472,
    "longitude": 24.4884,
    "type": "Other",
    "functionality": "Fully Functional",
    "country": "Finland",
    "district": "Kanta-Häme",
    "affiliation": "Red Cross Red Crescent Facility",
    "region": "Europe",
    "icon": "https://i.ibb.co/C5SdLDV/Others.png"
  },
  {
    "id": 1280770,
    "name": "SPR Hämeenlinnan vastaanottokeskus, Forssan toimipiste",
    "latitude": 60.814234,
    "longitude": 23.628117,
    "type": "Other",
    "functionality": "Fully Functional",
    "country": "Finland",
    "district": "Kanta-Häme",
    "affiliation": "Red Cross Red Crescent Facility",
    "region": "Europe",
    "icon": "https://i.ibb.co/C5SdLDV/Others.png"
  },
  {
    "id": 1280772,
    "name": "SPR Hämeenlinnan vastaanottokeskus, Lammin toimipiste",
    "latitude": 61.080359,
    "longitude": 25.011022,
    "type": "Other",
    "functionality": "Fully Functional",
    "country": "Finland",
    "district": "Kanta-Häme",
    "affiliation": "Red Cross Red Crescent Facility",
    "region": "Europe",
    "icon": "https://i.ibb.co/C5SdLDV/Others.png"
  },
  {
    "id": 1281980,
    "name": "Guyana Red Cross Headquarters",
    "latitude": 6.821009,
    "longitude": -58.159851,
    "type": "Blood Centres",
    "functionality": "Fully Functional",
    "country": "Guyana",
    "district": "Kingston",
    "affiliation": "Red Cross Red Crescent Facility",
    "region": "Americas",
    "icon": "https://i.ibb.co/fCzwY1Y/Blood-Centre.png"
  },
  {
    "id": 1287020,
    "name": "REDCROSS CLINIC",
    "latitude": -17.833395,
    "longitude": 31.060589,
    "type": "Other",
    "functionality": "Fully Functional",
    "country": "Zimbabwe",
    "district": "HARARE",
    "affiliation": "Red Cross Red Crescent Facility",
    "region": "Africa",
    "icon": "https://i.ibb.co/C5SdLDV/Others.png"
  },
  {
    "id": 1296213,
    "name": "KAROI RED CROSS CLINIC",
    "latitude": -16.809746,
    "longitude": 29.69223,
    "type": "Primary Health Care Centres",
    "functionality": "Fully Functional",
    "country": "Zimbabwe",
    "district": "KAROI",
    "affiliation": "Red Cross Red Crescent Facility",
    "region": "Africa",
    "icon": "https://i.ibb.co/yhYWw9Q/PHC-Centre.png"
  },
  {
    "id": 1296759,
    "name": "Blood Service Espoo",
    "latitude": 60.161952,
    "longitude": 24.73683,
    "type": "Blood Centres",
    "functionality": "Fully Functional",
    "country": "Finland",
    "district": "Uusimaa",
    "affiliation": "Red Cross Red Crescent Facility",
    "region": "Europe",
    "icon": "https://i.ibb.co/fCzwY1Y/Blood-Centre.png"
  },
  {
    "id": 1297157,
    "name": "Blood Service Helsinki, Kivihaka",
    "latitude": 60.212211,
    "longitude": 24.904793,
    "type": "Blood Centres",
    "functionality": "Fully Functional",
    "country": "Finland",
    "district": "Uusimaa",
    "affiliation": "Red Cross Red Crescent Facility",
    "region": "Europe",
    "icon": "https://i.ibb.co/fCzwY1Y/Blood-Centre.png"
  },
  {
    "id": 1297269,
    "name": "Blood Service Helsinki, Sanomatalo",
    "latitude": 60.172472,
    "longitude": 24.938123,
    "type": "Blood Centres",
    "functionality": "Fully Functional",
    "country": "Finland",
    "district": "Uusimaa",
    "affiliation": "Red Cross Red Crescent Facility",
    "region": "Europe",
    "icon": "https://i.ibb.co/fCzwY1Y/Blood-Centre.png"
  },
  {
    "id": 1297805,
    "name": "Hospital Materno Infantil Reina Sofía Cruz Roja Paraguaya",
    "latitude": -25.28178,
    "longitude": -57.624654,
    "type": "Hospitals",
    "functionality": "Fully Functional",
    "country": "Paraguay",
    "district": "Asunción Capital",
    "affiliation": "Red Cross Red Crescent Facility",
    "region": "Americas",
    "icon": "https://i.ibb.co/cvm3m3h/Hospital.png"
  },
  {
    "id": 1297836,
    "name": "Hospital Materno Infantil Reina Sofía Cruz Roja Paraguaya",
    "latitude": -25.28386,
    "longitude": -57.622163,
    "type": "Hospitals",
    "functionality": "Fully Functional",
    "country": "Paraguay",
    "district": "Asunción",
    "affiliation": "Red Cross Red Crescent Facility",
    "region": "Americas",
    "icon": "https://i.ibb.co/cvm3m3h/Hospital.png"
  },
  {
    "id": 1298723,
    "name": "Sede Central de Cruz Roja Dominicana",
    "latitude": 18.478675,
    "longitude": -69.908502,
    "type": "Blood Centres",
    "functionality": "Fully Functional",
    "country": "Dominican Republic",
    "district": "Distrito Nacional",
    "affiliation": "Red Cross Red Crescent Facility",
    "region": "Americas",
    "icon": "https://i.ibb.co/fCzwY1Y/Blood-Centre.png"
  },
  {
    "id": 1299348,
    "name": "Blood Service Jyväskylä",
    "latitude": 62.244876,
    "longitude": 25.750677,
    "type": "Blood Centres",
    "functionality": "Fully Functional",
    "country": "Finland",
    "district": "Keski-Suomi",
    "affiliation": "Red Cross Red Crescent Facility",
    "region": "Europe",
    "icon": "https://i.ibb.co/fCzwY1Y/Blood-Centre.png"
  },
  {
    "id": 1299365,
    "name": "Blood Service Kuopio",
    "latitude": 62.892722,
    "longitude": 27.679948,
    "type": "Blood Centres",
    "functionality": "Fully Functional",
    "country": "Finland",
    "district": "Pohjois-Savo",
    "affiliation": "Red Cross Red Crescent Facility",
    "region": "Europe",
    "icon": "https://i.ibb.co/fCzwY1Y/Blood-Centre.png"
  },
  {
    "id": 1299384,
    "name": "Blood Service Lahti",
    "latitude": 60.983894,
    "longitude": 25.66362,
    "type": "Blood Centres",
    "functionality": "Fully Functional",
    "country": "Finland",
    "district": "Päijät-Häme",
    "affiliation": "Red Cross Red Crescent Facility",
    "region": "Europe",
    "icon": "https://i.ibb.co/fCzwY1Y/Blood-Centre.png"
  },
  {
    "id": 1299634,
    "name": "Blood Service Oulu",
    "latitude": 65.010146,
    "longitude": 25.4701,
    "type": "Blood Centres",
    "functionality": "Fully Functional",
    "country": "Finland",
    "district": "Pohjois-Pohjanmaa",
    "affiliation": "Red Cross Red Crescent Facility",
    "region": "Europe",
    "icon": "https://i.ibb.co/fCzwY1Y/Blood-Centre.png"
  },
  {
    "id": 1299658,
    "name": "Blood Service Seinäjoki",
    "latitude": 62.788272,
    "longitude": 22.835039,
    "type": "Blood Centres",
    "functionality": "Fully Functional",
    "country": "Finland",
    "district": "Etelä-Pohjanmaa",
    "affiliation": "Red Cross Red Crescent Facility",
    "region": "Europe",
    "icon": "https://i.ibb.co/fCzwY1Y/Blood-Centre.png"
  },
  {
    "id": 1299692,
    "name": "Blood Service Tampere",
    "latitude": 61.496061,
    "longitude": 23.767297,
    "type": "Blood Centres",
    "functionality": "Fully Functional",
    "country": "Finland",
    "district": "Pirkanmaa",
    "affiliation": "Red Cross Red Crescent Facility",
    "region": "Europe",
    "icon": "https://i.ibb.co/fCzwY1Y/Blood-Centre.png"
  },